[
  {
    "station_id": "101",
    "slug": "van-cortlandt-park-242-st",
    "name": "Van Cortlandt Park-242 St",
    "borough": "Bronx",
    "routes": [
      "1"
    ],
    "lat": 40.889248,
    "lon": -73.898583,
    "neighborhood": "Fieldston",
    "zip_code": "10463"
  },
  {
    "station_id": "103",
    "slug": "238-st",
    "name": "238 St",
    "borough": "Bronx",
    "routes": [
      "1"
    ],
    "lat": 40.884667,
    "lon": -73.90087,
    "neighborhood": "Kingsbridge",
    "zip_code": "10463"
  },
  {
    "station_id": "104",
    "slug": "231-st",
    "name": "231 St",
    "borough": "Bronx",
    "routes": [
      "1"
    ],
    "lat": 40.878856,
    "lon": -73.904834,
    "neighborhood": "Kingsbridge",
    "zip_code": "10463"
  },
  {
    "station_id": "106",
    "slug": "marble-hill-225-st",
    "name": "Marble Hill-225 St",
    "borough": "Manhattan",
    "routes": [
      "1"
    ],
    "lat": 40.874561,
    "lon": -73.909831,
    "neighborhood": "Marble Hill",
    "zip_code": "10463"
  },
  {
    "station_id": "107",
    "slug": "215-st",
    "name": "215 St",
    "borough": "Manhattan",
    "routes": [
      "1"
    ],
    "lat": 40.869444,
    "lon": -73.915279,
    "neighborhood": "Inwood",
    "zip_code": "10034"
  },
  {
    "station_id": "108",
    "slug": "207-st",
    "name": "207 St",
    "borough": "Manhattan",
    "routes": [
      "1"
    ],
    "lat": 40.864621,
    "lon": -73.918822,
    "neighborhood": "Inwood",
    "zip_code": "10034"
  },
  {
    "station_id": "109",
    "slug": "dyckman-st",
    "name": "Dyckman St",
    "borough": "Manhattan",
    "routes": [
      "1"
    ],
    "lat": 40.860531,
    "lon": -73.925536,
    "neighborhood": "Inwood",
    "zip_code": "10040"
  },
  {
    "station_id": "110",
    "slug": "191-st",
    "name": "191 St",
    "borough": "Manhattan",
    "routes": [
      "1"
    ],
    "lat": 40.855225,
    "lon": -73.929412,
    "neighborhood": "Washington Heights",
    "zip_code": "10040"
  },
  {
    "station_id": "111",
    "slug": "181-st",
    "name": "181 St",
    "borough": "Manhattan",
    "routes": [
      "1"
    ],
    "lat": 40.849505,
    "lon": -73.933596,
    "neighborhood": "Washington Heights",
    "zip_code": "10033"
  },
  {
    "station_id": "112",
    "slug": "168-st-washington-hts",
    "name": "168 St-Washington Hts",
    "borough": "Manhattan",
    "routes": [
      "1"
    ],
    "lat": 40.840556,
    "lon": -73.940133,
    "neighborhood": "Washington Heights",
    "zip_code": "10032"
  },
  {
    "station_id": "113",
    "slug": "157-st",
    "name": "157 St",
    "borough": "Manhattan",
    "routes": [
      "1"
    ],
    "lat": 40.834041,
    "lon": -73.94489,
    "neighborhood": "Washington Heights",
    "zip_code": "10032"
  },
  {
    "station_id": "114",
    "slug": "145-st",
    "name": "145 St",
    "borough": "Manhattan",
    "routes": [
      "1"
    ],
    "lat": 40.826551,
    "lon": -73.95036,
    "neighborhood": "Hamilton Heights",
    "zip_code": "10031"
  },
  {
    "station_id": "115",
    "slug": "137-st-city-college",
    "name": "137 St-City College",
    "borough": "Manhattan",
    "routes": [
      "1"
    ],
    "lat": 40.822008,
    "lon": -73.953676,
    "neighborhood": "Hamilton Heights",
    "zip_code": "10031"
  },
  {
    "station_id": "116",
    "slug": "125-st",
    "name": "125 St",
    "borough": "Manhattan",
    "routes": [
      "1"
    ],
    "lat": 40.815581,
    "lon": -73.958372,
    "neighborhood": "Morningside Heights",
    "zip_code": "10027"
  },
  {
    "station_id": "117",
    "slug": "116-st-columbia-university",
    "name": "116 St-Columbia University",
    "borough": "Manhattan",
    "routes": [
      "1"
    ],
    "lat": 40.807722,
    "lon": -73.96411,
    "neighborhood": "Morningside Heights",
    "zip_code": "10025"
  },
  {
    "station_id": "118",
    "slug": "cathedral-pkwy-110-st",
    "name": "Cathedral Pkwy (110 St)",
    "borough": "Manhattan",
    "routes": [
      "1"
    ],
    "lat": 40.803967,
    "lon": -73.966847,
    "neighborhood": "Upper West Side",
    "zip_code": "10025"
  },
  {
    "station_id": "119",
    "slug": "103-st",
    "name": "103 St",
    "borough": "Manhattan",
    "routes": [
      "1"
    ],
    "lat": 40.799446,
    "lon": -73.968379,
    "neighborhood": "Upper West Side",
    "zip_code": "10025"
  },
  {
    "station_id": "120",
    "slug": "96-st",
    "name": "96 St",
    "borough": "Manhattan",
    "routes": [
      "2",
      "3",
      "1"
    ],
    "lat": 40.793919,
    "lon": -73.972323,
    "neighborhood": "Upper West Side",
    "zip_code": "10025"
  },
  {
    "station_id": "121",
    "slug": "86-st",
    "name": "86 St",
    "borough": "Manhattan",
    "routes": [
      "2",
      "1"
    ],
    "lat": 40.788644,
    "lon": -73.976218,
    "neighborhood": "Upper West Side",
    "zip_code": "10024"
  },
  {
    "station_id": "122",
    "slug": "79-st",
    "name": "79 St",
    "borough": "Manhattan",
    "routes": [
      "2",
      "1"
    ],
    "lat": 40.783934,
    "lon": -73.979917,
    "neighborhood": "Upper West Side",
    "zip_code": "10024"
  },
  {
    "station_id": "123",
    "slug": "72-st",
    "name": "72 St",
    "borough": "Manhattan",
    "routes": [
      "2",
      "3",
      "1"
    ],
    "lat": 40.778453,
    "lon": -73.98197,
    "neighborhood": "Upper West Side",
    "zip_code": "10023"
  },
  {
    "station_id": "124",
    "slug": "66-st-lincoln-center",
    "name": "66 St-Lincoln Center",
    "borough": "Manhattan",
    "routes": [
      "2",
      "1"
    ],
    "lat": 40.77344,
    "lon": -73.982209,
    "neighborhood": "Lincoln Square",
    "zip_code": "10023"
  },
  {
    "station_id": "125",
    "slug": "59-st-columbus-circle",
    "name": "59 St-Columbus Circle",
    "borough": "Manhattan",
    "routes": [
      "2",
      "1"
    ],
    "lat": 40.768247,
    "lon": -73.981929,
    "neighborhood": "Hell's Kitchen",
    "zip_code": "10023"
  },
  {
    "station_id": "126",
    "slug": "50-st",
    "name": "50 St",
    "borough": "Manhattan",
    "routes": [
      "2",
      "1"
    ],
    "lat": 40.761728,
    "lon": -73.983849,
    "neighborhood": "Theater District",
    "zip_code": "10019"
  },
  {
    "station_id": "127",
    "slug": "times-sq-42-st",
    "name": "Times Sq-42 St",
    "borough": "Manhattan",
    "routes": [
      "2",
      "3",
      "1"
    ],
    "lat": 40.75529,
    "lon": -73.987495,
    "neighborhood": "Theater District",
    "zip_code": "10018"
  },
  {
    "station_id": "128",
    "slug": "34-st-penn-station",
    "name": "34 St-Penn Station",
    "borough": "Manhattan",
    "routes": [
      "2",
      "3",
      "1"
    ],
    "lat": 40.750373,
    "lon": -73.991057,
    "neighborhood": "Koreatown",
    "zip_code": "10001"
  },
  {
    "station_id": "129",
    "slug": "28-st",
    "name": "28 St",
    "borough": "Manhattan",
    "routes": [
      "2",
      "1"
    ],
    "lat": 40.747215,
    "lon": -73.993365,
    "neighborhood": "Chelsea",
    "zip_code": "10001"
  },
  {
    "station_id": "130",
    "slug": "23-st",
    "name": "23 St",
    "borough": "Manhattan",
    "routes": [
      "2",
      "1"
    ],
    "lat": 40.744081,
    "lon": -73.995657,
    "neighborhood": "Chelsea",
    "zip_code": "10011"
  },
  {
    "station_id": "131",
    "slug": "18-st",
    "name": "18 St",
    "borough": "Manhattan",
    "routes": [
      "2",
      "1"
    ],
    "lat": 40.74104,
    "lon": -73.997871,
    "neighborhood": "Chelsea",
    "zip_code": "10011"
  },
  {
    "station_id": "132",
    "slug": "14-st",
    "name": "14 St",
    "borough": "Manhattan",
    "routes": [
      "2",
      "3",
      "1"
    ],
    "lat": 40.737826,
    "lon": -74.000201,
    "neighborhood": "West Village",
    "zip_code": "10011"
  },
  {
    "station_id": "133",
    "slug": "christopher-st-stonewall",
    "name": "Christopher St-Stonewall",
    "borough": "Manhattan",
    "routes": [
      "2",
      "1"
    ],
    "lat": 40.733422,
    "lon": -74.002906,
    "neighborhood": "West Village",
    "zip_code": "10014"
  },
  {
    "station_id": "134",
    "slug": "houston-st",
    "name": "Houston St",
    "borough": "Manhattan",
    "routes": [
      "2",
      "1"
    ],
    "lat": 40.728251,
    "lon": -74.005367,
    "neighborhood": "Hudson Square",
    "zip_code": "10014"
  },
  {
    "station_id": "135",
    "slug": "canal-st",
    "name": "Canal St",
    "borough": "Manhattan",
    "routes": [
      "2",
      "1"
    ],
    "lat": 40.722854,
    "lon": -74.006277,
    "neighborhood": "Hudson Square",
    "zip_code": "10013"
  },
  {
    "station_id": "136",
    "slug": "franklin-st",
    "name": "Franklin St",
    "borough": "Manhattan",
    "routes": [
      "2",
      "1"
    ],
    "lat": 40.719318,
    "lon": -74.006886,
    "neighborhood": "TriBeCa",
    "zip_code": "10013"
  },
  {
    "station_id": "137",
    "slug": "chambers-st",
    "name": "Chambers St",
    "borough": "Manhattan",
    "routes": [
      "2",
      "3",
      "1"
    ],
    "lat": 40.715478,
    "lon": -74.009266,
    "neighborhood": "TriBeCa",
    "zip_code": "10007"
  },
  {
    "station_id": "138",
    "slug": "wtc-cortlandt",
    "name": "WTC Cortlandt",
    "borough": "Manhattan",
    "routes": [
      "1"
    ],
    "lat": 40.711835,
    "lon": -74.012188,
    "neighborhood": "Financial District",
    "zip_code": "10048"
  },
  {
    "station_id": "139",
    "slug": "rector-st",
    "name": "Rector St",
    "borough": "Manhattan",
    "routes": [
      "1"
    ],
    "lat": 40.707513,
    "lon": -74.013783,
    "neighborhood": "Financial District",
    "zip_code": "10006"
  },
  {
    "station_id": "140",
    "slug": "south-ferry-loop",
    "name": "South Ferry Loop",
    "borough": "Manhattan",
    "routes": [],
    "lat": 40.701411,
    "lon": -74.013205,
    "neighborhood": "Financial District",
    "zip_code": "10004"
  },
  {
    "station_id": "142",
    "slug": "south-ferry",
    "name": "South Ferry",
    "borough": "Manhattan",
    "routes": [
      "1"
    ],
    "lat": 40.702068,
    "lon": -74.013664,
    "neighborhood": "Financial District",
    "zip_code": "10004"
  },
  {
    "station_id": "201",
    "slug": "wakefield-241-st",
    "name": "Wakefield-241 St",
    "borough": "Bronx",
    "routes": [
      "2"
    ],
    "lat": 40.903125,
    "lon": -73.85062,
    "neighborhood": "Wakefield",
    "zip_code": "10470"
  },
  {
    "station_id": "204",
    "slug": "nereid-av",
    "name": "Nereid Av",
    "borough": "Bronx",
    "routes": [
      "2",
      "5"
    ],
    "lat": 40.898379,
    "lon": -73.854376,
    "neighborhood": "Wakefield",
    "zip_code": "10466"
  },
  {
    "station_id": "205",
    "slug": "233-st",
    "name": "233 St",
    "borough": "Bronx",
    "routes": [
      "2",
      "5"
    ],
    "lat": 40.893193,
    "lon": -73.857473,
    "neighborhood": "Williamsbridge",
    "zip_code": "10466"
  },
  {
    "station_id": "206",
    "slug": "225-st",
    "name": "225 St",
    "borough": "Bronx",
    "routes": [
      "2",
      "5"
    ],
    "lat": 40.888022,
    "lon": -73.860341,
    "neighborhood": "Williamsbridge",
    "zip_code": "10466"
  },
  {
    "station_id": "207",
    "slug": "219-st",
    "name": "219 St",
    "borough": "Bronx",
    "routes": [
      "2",
      "5"
    ],
    "lat": 40.883895,
    "lon": -73.862633,
    "neighborhood": "Williamsbridge",
    "zip_code": "10467"
  },
  {
    "station_id": "208",
    "slug": "gun-hill-rd",
    "name": "Gun Hill Rd",
    "borough": "Bronx",
    "routes": [
      "2",
      "5"
    ],
    "lat": 40.87785,
    "lon": -73.866256,
    "neighborhood": "Williamsbridge",
    "zip_code": "10467"
  },
  {
    "station_id": "209",
    "slug": "burke-av",
    "name": "Burke Av",
    "borough": "Bronx",
    "routes": [
      "2",
      "5"
    ],
    "lat": 40.871356,
    "lon": -73.867164,
    "neighborhood": "Allerton",
    "zip_code": "10467"
  },
  {
    "station_id": "210",
    "slug": "allerton-av",
    "name": "Allerton Av",
    "borough": "Bronx",
    "routes": [
      "2",
      "5"
    ],
    "lat": 40.865462,
    "lon": -73.867352,
    "neighborhood": "Allerton",
    "zip_code": "10467"
  },
  {
    "station_id": "212",
    "slug": "bronx-park-east",
    "name": "Bronx Park East",
    "borough": "Bronx",
    "routes": [
      "2",
      "5"
    ],
    "lat": 40.848828,
    "lon": -73.868457,
    "neighborhood": "Pelham Parkway",
    "zip_code": "10462"
  },
  {
    "station_id": "211",
    "slug": "pelham-pkwy",
    "name": "Pelham Pkwy",
    "borough": "Bronx",
    "routes": [
      "2",
      "5"
    ],
    "lat": 40.857192,
    "lon": -73.867615,
    "neighborhood": "Pelham Parkway",
    "zip_code": "10462"
  },
  {
    "station_id": "213",
    "slug": "e-180-st",
    "name": "E 180 St",
    "borough": "Bronx",
    "routes": [
      "2",
      "5"
    ],
    "lat": 40.841894,
    "lon": -73.873488,
    "neighborhood": "Van Nest",
    "zip_code": "10460"
  },
  {
    "station_id": "214",
    "slug": "west-farms-sq-e-tremont-av",
    "name": "West Farms Sq-E Tremont Av",
    "borough": "Bronx",
    "routes": [
      "2",
      "5"
    ],
    "lat": 40.840295,
    "lon": -73.880049,
    "neighborhood": "East Tremont",
    "zip_code": "10460"
  },
  {
    "station_id": "216",
    "slug": "freeman-st",
    "name": "Freeman St",
    "borough": "Bronx",
    "routes": [
      "2",
      "5"
    ],
    "lat": 40.829993,
    "lon": -73.891865,
    "neighborhood": "Crotona Park East",
    "zip_code": "10459"
  },
  {
    "station_id": "215",
    "slug": "174-st",
    "name": "174 St",
    "borough": "Bronx",
    "routes": [
      "2",
      "5"
    ],
    "lat": 40.837288,
    "lon": -73.887734,
    "neighborhood": "Crotona Park East",
    "zip_code": "10460"
  },
  {
    "station_id": "217",
    "slug": "simpson-st",
    "name": "Simpson St",
    "borough": "Bronx",
    "routes": [
      "2",
      "5"
    ],
    "lat": 40.824073,
    "lon": -73.893064,
    "neighborhood": "Longwood",
    "zip_code": "10459"
  },
  {
    "station_id": "218",
    "slug": "intervale-av",
    "name": "Intervale Av",
    "borough": "Bronx",
    "routes": [
      "2",
      "5"
    ],
    "lat": 40.822181,
    "lon": -73.896736,
    "neighborhood": "Longwood",
    "zip_code": "10459"
  },
  {
    "station_id": "219",
    "slug": "prospect-av",
    "name": "Prospect Av",
    "borough": "Bronx",
    "routes": [
      "2",
      "5"
    ],
    "lat": 40.819585,
    "lon": -73.90177,
    "neighborhood": "Longwood",
    "zip_code": "10455"
  },
  {
    "station_id": "220",
    "slug": "jackson-av",
    "name": "Jackson Av",
    "borough": "Bronx",
    "routes": [
      "2",
      "5"
    ],
    "lat": 40.81649,
    "lon": -73.907807,
    "neighborhood": "Morrisania",
    "zip_code": "10455"
  },
  {
    "station_id": "221",
    "slug": "3-av-149-st",
    "name": "3 Av-149 St",
    "borough": "Bronx",
    "routes": [
      "2",
      "5"
    ],
    "lat": 40.816109,
    "lon": -73.917757,
    "neighborhood": "Mott Haven",
    "zip_code": "10455"
  },
  {
    "station_id": "224",
    "slug": "135-st",
    "name": "135 St",
    "borough": "Manhattan",
    "routes": [
      "2",
      "3"
    ],
    "lat": 40.814229,
    "lon": -73.94077,
    "neighborhood": "Harlem",
    "zip_code": "10030"
  },
  {
    "station_id": "222",
    "slug": "149-st-grand-concourse",
    "name": "149 St-Grand Concourse",
    "borough": "Bronx",
    "routes": [
      "2",
      "5"
    ],
    "lat": 40.81841,
    "lon": -73.926718,
    "neighborhood": "Grand Concourse",
    "zip_code": "10451"
  },
  {
    "station_id": "225",
    "slug": "125-st",
    "name": "125 St",
    "borough": "Manhattan",
    "routes": [
      "2",
      "3"
    ],
    "lat": 40.807754,
    "lon": -73.945495,
    "neighborhood": "Harlem",
    "zip_code": "10027"
  },
  {
    "station_id": "226",
    "slug": "116-st",
    "name": "116 St",
    "borough": "Manhattan",
    "routes": [
      "2",
      "3"
    ],
    "lat": 40.802098,
    "lon": -73.949625,
    "neighborhood": "Harlem",
    "zip_code": "10026"
  },
  {
    "station_id": "228",
    "slug": "park-place",
    "name": "Park Place",
    "borough": "Manhattan",
    "routes": [
      "2",
      "3"
    ],
    "lat": 40.713051,
    "lon": -74.008811,
    "neighborhood": "TriBeCa",
    "zip_code": "10007"
  },
  {
    "station_id": "227",
    "slug": "central-park-north-110-st",
    "name": "Central Park North (110 St)",
    "borough": "Manhattan",
    "routes": [
      "2",
      "3"
    ],
    "lat": 40.799075,
    "lon": -73.951822,
    "neighborhood": "Harlem",
    "zip_code": "10026"
  },
  {
    "station_id": "229",
    "slug": "fulton-st",
    "name": "Fulton St",
    "borough": "Manhattan",
    "routes": [
      "2",
      "3"
    ],
    "lat": 40.709416,
    "lon": -74.006571,
    "neighborhood": "Financial District",
    "zip_code": "10038"
  },
  {
    "station_id": "230",
    "slug": "wall-st",
    "name": "Wall St",
    "borough": "Manhattan",
    "routes": [
      "2",
      "3"
    ],
    "lat": 40.706821,
    "lon": -74.0091,
    "neighborhood": "Financial District",
    "zip_code": "10005"
  },
  {
    "station_id": "231",
    "slug": "clark-st",
    "name": "Clark St",
    "borough": "Brooklyn",
    "routes": [
      "2",
      "3"
    ],
    "lat": 40.697466,
    "lon": -73.993086,
    "neighborhood": "Brooklyn Heights",
    "zip_code": "11201"
  },
  {
    "station_id": "232",
    "slug": "borough-hall",
    "name": "Borough Hall",
    "borough": "Brooklyn",
    "routes": [
      "2",
      "3"
    ],
    "lat": 40.693219,
    "lon": -73.989998,
    "neighborhood": "Downtown Brooklyn",
    "zip_code": "11201"
  },
  {
    "station_id": "233",
    "slug": "hoyt-st",
    "name": "Hoyt St",
    "borough": "Brooklyn",
    "routes": [
      "2",
      "3"
    ],
    "lat": 40.690545,
    "lon": -73.985065,
    "neighborhood": "Downtown Brooklyn",
    "zip_code": "11201"
  },
  {
    "station_id": "234",
    "slug": "nevins-st",
    "name": "Nevins St",
    "borough": "Brooklyn",
    "routes": [
      "2",
      "4",
      "3",
      "5"
    ],
    "lat": 40.688246,
    "lon": -73.980492,
    "neighborhood": "Downtown Brooklyn",
    "zip_code": "11217"
  },
  {
    "station_id": "235",
    "slug": "atlantic-av-barclays-ctr",
    "name": "Atlantic Av-Barclays Ctr",
    "borough": "Brooklyn",
    "routes": [
      "2",
      "4",
      "3",
      "5"
    ],
    "lat": 40.684359,
    "lon": -73.977666,
    "neighborhood": "Fort Greene",
    "zip_code": "11217"
  },
  {
    "station_id": "236",
    "slug": "bergen-st",
    "name": "Bergen St",
    "borough": "Brooklyn",
    "routes": [
      "2",
      "4",
      "3"
    ],
    "lat": 40.680829,
    "lon": -73.975098,
    "neighborhood": "Prospect Heights",
    "zip_code": "11217"
  },
  {
    "station_id": "237",
    "slug": "grand-army-plaza",
    "name": "Grand Army Plaza",
    "borough": "Brooklyn",
    "routes": [
      "2",
      "4",
      "3"
    ],
    "lat": 40.675235,
    "lon": -73.971046,
    "neighborhood": "Park Slope",
    "zip_code": "11238"
  },
  {
    "station_id": "238",
    "slug": "eastern-pkwy-brooklyn-museum",
    "name": "Eastern Pkwy-Brooklyn Museum",
    "borough": "Brooklyn",
    "routes": [
      "2",
      "4",
      "3"
    ],
    "lat": 40.671987,
    "lon": -73.964375,
    "neighborhood": "Prospect Park",
    "zip_code": "11238"
  },
  {
    "station_id": "239",
    "slug": "franklin-av-medgar-evers-college",
    "name": "Franklin Av-Medgar Evers College",
    "borough": "Brooklyn",
    "routes": [
      "2",
      "4",
      "3",
      "5"
    ],
    "lat": 40.670682,
    "lon": -73.958131,
    "neighborhood": "Crown Heights",
    "zip_code": "11225"
  },
  {
    "station_id": "241",
    "slug": "president-st-medgar-evers-college",
    "name": "President St-Medgar Evers College",
    "borough": "Brooklyn",
    "routes": [
      "2",
      "5"
    ],
    "lat": 40.667883,
    "lon": -73.950683,
    "neighborhood": "Crown Heights",
    "zip_code": "11225"
  },
  {
    "station_id": "243",
    "slug": "winthrop-st",
    "name": "Winthrop St",
    "borough": "Brooklyn",
    "routes": [
      "2",
      "5"
    ],
    "lat": 40.656652,
    "lon": -73.9502,
    "neighborhood": "Prospect Lefferts Gardens",
    "zip_code": "11225"
  },
  {
    "station_id": "242",
    "slug": "sterling-st",
    "name": "Sterling St",
    "borough": "Brooklyn",
    "routes": [
      "2",
      "5"
    ],
    "lat": 40.662742,
    "lon": -73.95085,
    "neighborhood": "Prospect Lefferts Gardens",
    "zip_code": "11225"
  },
  {
    "station_id": "244",
    "slug": "church-av",
    "name": "Church Av",
    "borough": "Brooklyn",
    "routes": [
      "2",
      "5"
    ],
    "lat": 40.650843,
    "lon": -73.949575,
    "neighborhood": "Flatbush",
    "zip_code": "11226"
  },
  {
    "station_id": "246",
    "slug": "newkirk-av-little-haiti",
    "name": "Newkirk Av-Little Haiti",
    "borough": "Brooklyn",
    "routes": [
      "2",
      "5"
    ],
    "lat": 40.639967,
    "lon": -73.948411,
    "neighborhood": "Flatbush",
    "zip_code": "11226"
  },
  {
    "station_id": "245",
    "slug": "beverly-rd",
    "name": "Beverly Rd",
    "borough": "Brooklyn",
    "routes": [
      "2",
      "5"
    ],
    "lat": 40.645098,
    "lon": -73.948959,
    "neighborhood": "Flatbush",
    "zip_code": "11226"
  },
  {
    "station_id": "247",
    "slug": "flatbush-av-brooklyn-college",
    "name": "Flatbush Av-Brooklyn College",
    "borough": "Brooklyn",
    "routes": [
      "2",
      "5"
    ],
    "lat": 40.632836,
    "lon": -73.947642,
    "neighborhood": "Flatbush",
    "zip_code": "11210"
  },
  {
    "station_id": "248",
    "slug": "nostrand-av",
    "name": "Nostrand Av",
    "borough": "Brooklyn",
    "routes": [
      "2",
      "4",
      "3",
      "5"
    ],
    "lat": 40.669847,
    "lon": -73.950466,
    "neighborhood": "Crown Heights",
    "zip_code": "11225"
  },
  {
    "station_id": "250",
    "slug": "crown-hts-utica-av",
    "name": "Crown Hts-Utica Av",
    "borough": "Brooklyn",
    "routes": [
      "2",
      "4",
      "3",
      "5"
    ],
    "lat": 40.668897,
    "lon": -73.932942,
    "neighborhood": "Crown Heights",
    "zip_code": "11213"
  },
  {
    "station_id": "249",
    "slug": "kingston-av",
    "name": "Kingston Av",
    "borough": "Brooklyn",
    "routes": [
      "2",
      "4",
      "3",
      "5"
    ],
    "lat": 40.669399,
    "lon": -73.942161,
    "neighborhood": "Crown Heights",
    "zip_code": "11213"
  },
  {
    "station_id": "251",
    "slug": "sutter-av-rutland-rd",
    "name": "Sutter Av-Rutland Rd",
    "borough": "Brooklyn",
    "routes": [
      "2",
      "4",
      "3",
      "5"
    ],
    "lat": 40.664717,
    "lon": -73.92261,
    "neighborhood": "East Flatbush",
    "zip_code": "11212"
  },
  {
    "station_id": "252",
    "slug": "saratoga-av",
    "name": "Saratoga Av",
    "borough": "Brooklyn",
    "routes": [
      "2",
      "4",
      "3",
      "5"
    ],
    "lat": 40.661453,
    "lon": -73.916327,
    "neighborhood": "Brownsville",
    "zip_code": "11212"
  },
  {
    "station_id": "253",
    "slug": "rockaway-av",
    "name": "Rockaway Av",
    "borough": "Brooklyn",
    "routes": [
      "2",
      "4",
      "3",
      "5"
    ],
    "lat": 40.662549,
    "lon": -73.908946,
    "neighborhood": "Brownsville",
    "zip_code": "11212"
  },
  {
    "station_id": "254",
    "slug": "junius-st",
    "name": "Junius St",
    "borough": "Brooklyn",
    "routes": [
      "2",
      "4",
      "3",
      "5"
    ],
    "lat": 40.663515,
    "lon": -73.902447,
    "neighborhood": "Brownsville",
    "zip_code": "11212"
  },
  {
    "station_id": "255",
    "slug": "pennsylvania-av",
    "name": "Pennsylvania Av",
    "borough": "Brooklyn",
    "routes": [
      "2",
      "4",
      "3",
      "5"
    ],
    "lat": 40.664635,
    "lon": -73.894895,
    "neighborhood": "East New York",
    "zip_code": "11207"
  },
  {
    "station_id": "256",
    "slug": "van-siclen-av",
    "name": "Van Siclen Av",
    "borough": "Brooklyn",
    "routes": [
      "2",
      "4",
      "3",
      "5"
    ],
    "lat": 40.665449,
    "lon": -73.889395,
    "neighborhood": "East New York",
    "zip_code": "11207"
  },
  {
    "station_id": "257",
    "slug": "new-lots-av",
    "name": "New Lots Av",
    "borough": "Brooklyn",
    "routes": [
      "2",
      "4",
      "3",
      "5"
    ],
    "lat": 40.666235,
    "lon": -73.884079,
    "neighborhood": "East New York",
    "zip_code": "11207"
  },
  {
    "station_id": "301",
    "slug": "harlem-148-st",
    "name": "Harlem-148 St",
    "borough": "Manhattan",
    "routes": [
      "3"
    ],
    "lat": 40.82388,
    "lon": -73.93647,
    "neighborhood": "Harlem",
    "zip_code": "10039"
  },
  {
    "station_id": "302",
    "slug": "145-st",
    "name": "145 St",
    "borough": "Manhattan",
    "routes": [
      "3"
    ],
    "lat": 40.820421,
    "lon": -73.936245,
    "neighborhood": "Harlem",
    "zip_code": "10030"
  },
  {
    "station_id": "401",
    "slug": "woodlawn",
    "name": "Woodlawn",
    "borough": "Bronx",
    "routes": [
      "4"
    ],
    "lat": 40.886037,
    "lon": -73.878751,
    "neighborhood": "Norwood",
    "zip_code": "10467"
  },
  {
    "station_id": "402",
    "slug": "mosholu-pkwy",
    "name": "Mosholu Pkwy",
    "borough": "Bronx",
    "routes": [
      "4"
    ],
    "lat": 40.87975,
    "lon": -73.884655,
    "neighborhood": "Norwood",
    "zip_code": "10467"
  },
  {
    "station_id": "405",
    "slug": "bedford-park-blvd-lehman-college",
    "name": "Bedford Park Blvd-Lehman College",
    "borough": "Bronx",
    "routes": [
      "4"
    ],
    "lat": 40.873412,
    "lon": -73.890064,
    "neighborhood": "Kingsbridge Heights",
    "zip_code": "10468"
  },
  {
    "station_id": "406",
    "slug": "kingsbridge-rd",
    "name": "Kingsbridge Rd",
    "borough": "Bronx",
    "routes": [
      "4"
    ],
    "lat": 40.86776,
    "lon": -73.897174,
    "neighborhood": "Fordham",
    "zip_code": "10468"
  },
  {
    "station_id": "407",
    "slug": "fordham-rd",
    "name": "Fordham Rd",
    "borough": "Bronx",
    "routes": [
      "4"
    ],
    "lat": 40.862803,
    "lon": -73.901034,
    "neighborhood": "University Heights",
    "zip_code": "10468"
  },
  {
    "station_id": "408",
    "slug": "183-st",
    "name": "183 St",
    "borough": "Bronx",
    "routes": [
      "4"
    ],
    "lat": 40.858407,
    "lon": -73.903879,
    "neighborhood": "University Heights",
    "zip_code": "10453"
  },
  {
    "station_id": "409",
    "slug": "burnside-av",
    "name": "Burnside Av",
    "borough": "Bronx",
    "routes": [
      "4"
    ],
    "lat": 40.853453,
    "lon": -73.907684,
    "neighborhood": "Morris Heights",
    "zip_code": "10453"
  },
  {
    "station_id": "410",
    "slug": "176-st",
    "name": "176 St",
    "borough": "Bronx",
    "routes": [
      "4"
    ],
    "lat": 40.84848,
    "lon": -73.911794,
    "neighborhood": "Tremont",
    "zip_code": "10453"
  },
  {
    "station_id": "411",
    "slug": "mt-eden-av",
    "name": "Mt Eden Av",
    "borough": "Bronx",
    "routes": [
      "4"
    ],
    "lat": 40.844434,
    "lon": -73.914685,
    "neighborhood": "Mount Eden",
    "zip_code": "10452"
  },
  {
    "station_id": "412",
    "slug": "170-st",
    "name": "170 St",
    "borough": "Bronx",
    "routes": [
      "4"
    ],
    "lat": 40.840075,
    "lon": -73.917791,
    "neighborhood": "Mount Eden",
    "zip_code": "10452"
  },
  {
    "station_id": "413",
    "slug": "167-st",
    "name": "167 St",
    "borough": "Bronx",
    "routes": [
      "4"
    ],
    "lat": 40.835537,
    "lon": -73.9214,
    "neighborhood": "Grand Concourse",
    "zip_code": "10452"
  },
  {
    "station_id": "414",
    "slug": "161-st-yankee-stadium",
    "name": "161 St-Yankee Stadium",
    "borough": "Bronx",
    "routes": [
      "4"
    ],
    "lat": 40.827994,
    "lon": -73.925831,
    "neighborhood": "Grand Concourse",
    "zip_code": "10452"
  },
  {
    "station_id": "415",
    "slug": "149-st-grand-concourse",
    "name": "149 St-Grand Concourse",
    "borough": "Bronx",
    "routes": [
      "4"
    ],
    "lat": 40.818375,
    "lon": -73.927351,
    "neighborhood": "Grand Concourse",
    "zip_code": "10451"
  },
  {
    "station_id": "416",
    "slug": "138-st-grand-concourse",
    "name": "138 St-Grand Concourse",
    "borough": "Bronx",
    "routes": [
      "4",
      "5"
    ],
    "lat": 40.813224,
    "lon": -73.929849,
    "neighborhood": "Grand Concourse",
    "zip_code": "10451"
  },
  {
    "station_id": "418",
    "slug": "fulton-st",
    "name": "Fulton St",
    "borough": "Manhattan",
    "routes": [
      "4",
      "5"
    ],
    "lat": 40.710368,
    "lon": -74.009509,
    "neighborhood": "Financial District",
    "zip_code": "10007"
  },
  {
    "station_id": "419",
    "slug": "wall-st",
    "name": "Wall St",
    "borough": "Manhattan",
    "routes": [
      "4",
      "5"
    ],
    "lat": 40.707557,
    "lon": -74.011862,
    "neighborhood": "Financial District",
    "zip_code": "10006"
  },
  {
    "station_id": "420",
    "slug": "bowling-green",
    "name": "Bowling Green",
    "borough": "Manhattan",
    "routes": [
      "4",
      "5"
    ],
    "lat": 40.704817,
    "lon": -74.014065,
    "neighborhood": "Financial District",
    "zip_code": "10004"
  },
  {
    "station_id": "423",
    "slug": "borough-hall",
    "name": "Borough Hall",
    "borough": "Brooklyn",
    "routes": [
      "4",
      "5"
    ],
    "lat": 40.692404,
    "lon": -73.990151,
    "neighborhood": "Downtown Brooklyn",
    "zip_code": "11201"
  },
  {
    "station_id": "501",
    "slug": "eastchester-dyre-av",
    "name": "Eastchester-Dyre Av",
    "borough": "Bronx",
    "routes": [
      "5"
    ],
    "lat": 40.8883,
    "lon": -73.830834,
    "neighborhood": "Eastchester",
    "zip_code": "10466"
  },
  {
    "station_id": "502",
    "slug": "baychester-av",
    "name": "Baychester Av",
    "borough": "Bronx",
    "routes": [
      "5"
    ],
    "lat": 40.878663,
    "lon": -73.838591,
    "neighborhood": "Edenwald",
    "zip_code": "10469"
  },
  {
    "station_id": "503",
    "slug": "gun-hill-rd",
    "name": "Gun Hill Rd",
    "borough": "Bronx",
    "routes": [
      "5"
    ],
    "lat": 40.869526,
    "lon": -73.846384,
    "neighborhood": "Laconia",
    "zip_code": "10469"
  },
  {
    "station_id": "504",
    "slug": "pelham-pkwy",
    "name": "Pelham Pkwy",
    "borough": "Bronx",
    "routes": [
      "5"
    ],
    "lat": 40.858985,
    "lon": -73.855359,
    "neighborhood": "Pelham Parkway",
    "zip_code": "10469"
  },
  {
    "station_id": "505",
    "slug": "morris-park",
    "name": "Morris Park",
    "borough": "Bronx",
    "routes": [
      "5"
    ],
    "lat": 40.854364,
    "lon": -73.860495,
    "neighborhood": "Pelham Parkway",
    "zip_code": "10462"
  },
  {
    "station_id": "601",
    "slug": "pelham-bay-park",
    "name": "Pelham Bay Park",
    "borough": "Bronx",
    "routes": [
      "6",
      "6X"
    ],
    "lat": 40.852462,
    "lon": -73.828121,
    "neighborhood": "Pelham Bay",
    "zip_code": "10461"
  },
  {
    "station_id": "602",
    "slug": "buhre-av",
    "name": "Buhre Av",
    "borough": "Bronx",
    "routes": [
      "6",
      "6X"
    ],
    "lat": 40.84681,
    "lon": -73.832569,
    "neighborhood": "Pelham Bay",
    "zip_code": "10461"
  },
  {
    "station_id": "603",
    "slug": "middletown-rd",
    "name": "Middletown Rd",
    "borough": "Bronx",
    "routes": [
      "6",
      "6X"
    ],
    "lat": 40.843863,
    "lon": -73.836322,
    "neighborhood": "Pelham Bay",
    "zip_code": "10461"
  },
  {
    "station_id": "604",
    "slug": "westchester-sq-e-tremont-av",
    "name": "Westchester Sq-E Tremont Av",
    "borough": "Bronx",
    "routes": [
      "6",
      "6X"
    ],
    "lat": 40.839892,
    "lon": -73.842952,
    "neighborhood": "Westchester Square",
    "zip_code": "10461"
  },
  {
    "station_id": "606",
    "slug": "zerega-av",
    "name": "Zerega Av",
    "borough": "Bronx",
    "routes": [
      "6",
      "6X"
    ],
    "lat": 40.836488,
    "lon": -73.847036,
    "neighborhood": "Westchester Square",
    "zip_code": "10462"
  },
  {
    "station_id": "607",
    "slug": "castle-hill-av",
    "name": "Castle Hill Av",
    "borough": "Bronx",
    "routes": [
      "6",
      "6X"
    ],
    "lat": 40.834255,
    "lon": -73.851222,
    "neighborhood": "Castle Hill",
    "zip_code": "10462"
  },
  {
    "station_id": "608",
    "slug": "parkchester",
    "name": "Parkchester",
    "borough": "Bronx",
    "routes": [
      "6",
      "6X"
    ],
    "lat": 40.833226,
    "lon": -73.860816,
    "neighborhood": "Castle Hill",
    "zip_code": "10472"
  },
  {
    "station_id": "609",
    "slug": "st-lawrence-av",
    "name": "St Lawrence Av",
    "borough": "Bronx",
    "routes": [
      "6",
      "6X"
    ],
    "lat": 40.831509,
    "lon": -73.867618,
    "neighborhood": "Soundview",
    "zip_code": "10472"
  },
  {
    "station_id": "610",
    "slug": "morrison-av-soundview",
    "name": "Morrison Av-Soundview",
    "borough": "Bronx",
    "routes": [
      "6",
      "6X"
    ],
    "lat": 40.829521,
    "lon": -73.874516,
    "neighborhood": "Soundview",
    "zip_code": "10472"
  },
  {
    "station_id": "611",
    "slug": "elder-av",
    "name": "Elder Av",
    "borough": "Bronx",
    "routes": [
      "6",
      "6X"
    ],
    "lat": 40.828584,
    "lon": -73.879159,
    "neighborhood": "Soundview",
    "zip_code": "10472"
  },
  {
    "station_id": "613",
    "slug": "hunts-point-av",
    "name": "Hunts Point Av",
    "borough": "Bronx",
    "routes": [
      "6",
      "6X"
    ],
    "lat": 40.820948,
    "lon": -73.890549,
    "neighborhood": "Longwood",
    "zip_code": "10459"
  },
  {
    "station_id": "612",
    "slug": "whitlock-av",
    "name": "Whitlock Av",
    "borough": "Bronx",
    "routes": [
      "6",
      "6X"
    ],
    "lat": 40.826525,
    "lon": -73.886283,
    "neighborhood": "Longwood",
    "zip_code": "10459"
  },
  {
    "station_id": "614",
    "slug": "longwood-av",
    "name": "Longwood Av",
    "borough": "Bronx",
    "routes": [
      "6"
    ],
    "lat": 40.816104,
    "lon": -73.896435,
    "neighborhood": "Longwood",
    "zip_code": "10455"
  },
  {
    "station_id": "615",
    "slug": "e-149-st",
    "name": "E 149 St",
    "borough": "Bronx",
    "routes": [
      "6"
    ],
    "lat": 40.812118,
    "lon": -73.904098,
    "neighborhood": "Longwood",
    "zip_code": "10455"
  },
  {
    "station_id": "616",
    "slug": "e-143-st-st-mary-s-st",
    "name": "E 143 St-St Mary's St",
    "borough": "Bronx",
    "routes": [
      "6"
    ],
    "lat": 40.808719,
    "lon": -73.907657,
    "neighborhood": "Mott Haven",
    "zip_code": "10454"
  },
  {
    "station_id": "617",
    "slug": "cypress-av",
    "name": "Cypress Av",
    "borough": "Bronx",
    "routes": [
      "6"
    ],
    "lat": 40.805368,
    "lon": -73.914042,
    "neighborhood": "Mott Haven",
    "zip_code": "10454"
  },
  {
    "station_id": "618",
    "slug": "brook-av",
    "name": "Brook Av",
    "borough": "Bronx",
    "routes": [
      "6"
    ],
    "lat": 40.807566,
    "lon": -73.91924,
    "neighborhood": "Mott Haven",
    "zip_code": "10454"
  },
  {
    "station_id": "619",
    "slug": "3-av-138-st",
    "name": "3 Av-138 St",
    "borough": "Bronx",
    "routes": [
      "6",
      "6X"
    ],
    "lat": 40.810476,
    "lon": -73.926138,
    "neighborhood": "Mott Haven",
    "zip_code": "10454"
  },
  {
    "station_id": "621",
    "slug": "125-st",
    "name": "125 St",
    "borough": "Manhattan",
    "routes": [
      "6X",
      "4",
      "6",
      "5"
    ],
    "lat": 40.804138,
    "lon": -73.937594,
    "neighborhood": "East Harlem",
    "zip_code": "10035"
  },
  {
    "station_id": "622",
    "slug": "116-st",
    "name": "116 St",
    "borough": "Manhattan",
    "routes": [
      "4",
      "6",
      "6X"
    ],
    "lat": 40.798629,
    "lon": -73.941617,
    "neighborhood": "East Harlem",
    "zip_code": "10029"
  },
  {
    "station_id": "623",
    "slug": "110-st",
    "name": "110 St",
    "borough": "Manhattan",
    "routes": [
      "4",
      "6",
      "6X"
    ],
    "lat": 40.79502,
    "lon": -73.94425,
    "neighborhood": "East Harlem",
    "zip_code": "10029"
  },
  {
    "station_id": "624",
    "slug": "103-st",
    "name": "103 St",
    "borough": "Manhattan",
    "routes": [
      "4",
      "6",
      "6X"
    ],
    "lat": 40.7906,
    "lon": -73.947478,
    "neighborhood": "East Harlem",
    "zip_code": "10029"
  },
  {
    "station_id": "625",
    "slug": "96-st",
    "name": "96 St",
    "borough": "Manhattan",
    "routes": [
      "4",
      "6",
      "6X"
    ],
    "lat": 40.785672,
    "lon": -73.95107,
    "neighborhood": "Carnegie Hill",
    "zip_code": "10128"
  },
  {
    "station_id": "626",
    "slug": "86-st",
    "name": "86 St",
    "borough": "Manhattan",
    "routes": [
      "6X",
      "4",
      "6",
      "5"
    ],
    "lat": 40.779492,
    "lon": -73.955589,
    "neighborhood": "Upper East Side",
    "zip_code": "10028"
  },
  {
    "station_id": "627",
    "slug": "77-st",
    "name": "77 St",
    "borough": "Manhattan",
    "routes": [
      "4",
      "6",
      "6X"
    ],
    "lat": 40.77362,
    "lon": -73.959874,
    "neighborhood": "Lenox Hill",
    "zip_code": "10021"
  },
  {
    "station_id": "628",
    "slug": "68-st-hunter-college",
    "name": "68 St-Hunter College",
    "borough": "Manhattan",
    "routes": [
      "4",
      "6",
      "6X"
    ],
    "lat": 40.768141,
    "lon": -73.96387,
    "neighborhood": "Lenox Hill",
    "zip_code": "10065"
  },
  {
    "station_id": "629",
    "slug": "59-st",
    "name": "59 St",
    "borough": "Manhattan",
    "routes": [
      "6X",
      "4",
      "6",
      "5"
    ],
    "lat": 40.762526,
    "lon": -73.967967,
    "neighborhood": "Midtown East",
    "zip_code": "10022"
  },
  {
    "station_id": "631",
    "slug": "grand-central-42-st",
    "name": "Grand Central-42 St",
    "borough": "Manhattan",
    "routes": [
      "6X",
      "4",
      "6",
      "5"
    ],
    "lat": 40.751776,
    "lon": -73.976848,
    "neighborhood": "Midtown East",
    "zip_code": "10017"
  },
  {
    "station_id": "630",
    "slug": "51-st",
    "name": "51 St",
    "borough": "Manhattan",
    "routes": [
      "4",
      "6",
      "6X"
    ],
    "lat": 40.757107,
    "lon": -73.97192,
    "neighborhood": "Unknown",
    "zip_code": "10022"
  },
  {
    "station_id": "632",
    "slug": "33-st",
    "name": "33 St",
    "borough": "Manhattan",
    "routes": [
      "4",
      "6",
      "6X"
    ],
    "lat": 40.746081,
    "lon": -73.982076,
    "neighborhood": "Koreatown",
    "zip_code": "10016"
  },
  {
    "station_id": "633",
    "slug": "28-st",
    "name": "28 St",
    "borough": "Manhattan",
    "routes": [
      "4",
      "6",
      "6X"
    ],
    "lat": 40.74307,
    "lon": -73.984264,
    "neighborhood": "Rose Hill",
    "zip_code": "10016"
  },
  {
    "station_id": "635",
    "slug": "14-st-union-sq",
    "name": "14 St-Union Sq",
    "borough": "Manhattan",
    "routes": [
      "6X",
      "4",
      "6",
      "5"
    ],
    "lat": 40.734673,
    "lon": -73.989951,
    "neighborhood": "Union Square",
    "zip_code": "10003"
  },
  {
    "station_id": "634",
    "slug": "23-st",
    "name": "23 St",
    "borough": "Manhattan",
    "routes": [
      "4",
      "6",
      "6X"
    ],
    "lat": 40.739864,
    "lon": -73.986599,
    "neighborhood": "Gramercy Park",
    "zip_code": "10010"
  },
  {
    "station_id": "636",
    "slug": "astor-pl",
    "name": "Astor Pl",
    "borough": "Manhattan",
    "routes": [
      "4",
      "6",
      "6X"
    ],
    "lat": 40.730054,
    "lon": -73.99107,
    "neighborhood": "NoHo",
    "zip_code": "10003"
  },
  {
    "station_id": "637",
    "slug": "bleecker-st",
    "name": "Bleecker St",
    "borough": "Manhattan",
    "routes": [
      "4",
      "6",
      "6X"
    ],
    "lat": 40.725915,
    "lon": -73.994659,
    "neighborhood": "NoHo",
    "zip_code": "10012"
  },
  {
    "station_id": "638",
    "slug": "spring-st",
    "name": "Spring St",
    "borough": "Manhattan",
    "routes": [
      "4",
      "6",
      "6X"
    ],
    "lat": 40.722301,
    "lon": -73.997141,
    "neighborhood": "Nolita",
    "zip_code": "10012"
  },
  {
    "station_id": "639",
    "slug": "canal-st",
    "name": "Canal St",
    "borough": "Manhattan",
    "routes": [
      "4",
      "6",
      "6X"
    ],
    "lat": 40.718803,
    "lon": -74.000193,
    "neighborhood": "Chinatown",
    "zip_code": "10013"
  },
  {
    "station_id": "640",
    "slug": "brooklyn-bridge-city-hall",
    "name": "Brooklyn Bridge-City Hall",
    "borough": "Manhattan",
    "routes": [
      "6X",
      "4",
      "6",
      "5"
    ],
    "lat": 40.713065,
    "lon": -74.004131,
    "neighborhood": "Civic Center",
    "zip_code": "10007"
  },
  {
    "station_id": "701",
    "slug": "flushing-main-st",
    "name": "Flushing-Main St",
    "borough": "Queens",
    "routes": [
      "7",
      "7X"
    ],
    "lat": 40.7596,
    "lon": -73.83003,
    "neighborhood": "Flushing",
    "zip_code": "11354"
  },
  {
    "station_id": "702",
    "slug": "mets-willets-point",
    "name": "Mets-Willets Point",
    "borough": "Queens",
    "routes": [
      "7",
      "7X"
    ],
    "lat": 40.754622,
    "lon": -73.845625,
    "neighborhood": "Corona",
    "zip_code": "11368"
  },
  {
    "station_id": "705",
    "slug": "111-st",
    "name": "111 St",
    "borough": "Queens",
    "routes": [
      "7"
    ],
    "lat": 40.75173,
    "lon": -73.855334,
    "neighborhood": "North Corona",
    "zip_code": "11368"
  },
  {
    "station_id": "706",
    "slug": "103-st-corona-plaza",
    "name": "103 St-Corona Plaza",
    "borough": "Queens",
    "routes": [
      "7"
    ],
    "lat": 40.749865,
    "lon": -73.8627,
    "neighborhood": "Corona",
    "zip_code": "11368"
  },
  {
    "station_id": "707",
    "slug": "junction-blvd",
    "name": "Junction Blvd",
    "borough": "Queens",
    "routes": [
      "7",
      "7X"
    ],
    "lat": 40.749145,
    "lon": -73.869527,
    "neighborhood": "Jackson Heights",
    "zip_code": "11373"
  },
  {
    "station_id": "708",
    "slug": "90-st-elmhurst-av",
    "name": "90 St-Elmhurst Av",
    "borough": "Queens",
    "routes": [
      "7"
    ],
    "lat": 40.748408,
    "lon": -73.876613,
    "neighborhood": "Jackson Heights",
    "zip_code": "11372"
  },
  {
    "station_id": "709",
    "slug": "82-st-jackson-hts",
    "name": "82 St-Jackson Hts",
    "borough": "Queens",
    "routes": [
      "7"
    ],
    "lat": 40.747659,
    "lon": -73.883697,
    "neighborhood": "Elmhurst",
    "zip_code": "11372"
  },
  {
    "station_id": "710",
    "slug": "74-st-broadway",
    "name": "74 St-Broadway",
    "borough": "Queens",
    "routes": [
      "7",
      "7X"
    ],
    "lat": 40.746848,
    "lon": -73.891394,
    "neighborhood": "Elmhurst",
    "zip_code": "11373"
  },
  {
    "station_id": "711",
    "slug": "69-st",
    "name": "69 St",
    "borough": "Queens",
    "routes": [
      "7",
      "7X"
    ],
    "lat": 40.746325,
    "lon": -73.896403,
    "neighborhood": "Woodside",
    "zip_code": "11377"
  },
  {
    "station_id": "712",
    "slug": "61-st-woodside",
    "name": "61 St-Woodside",
    "borough": "Queens",
    "routes": [
      "7",
      "7X"
    ],
    "lat": 40.74563,
    "lon": -73.902984,
    "neighborhood": "Woodside",
    "zip_code": "11377"
  },
  {
    "station_id": "713",
    "slug": "52-st",
    "name": "52 St",
    "borough": "Queens",
    "routes": [
      "7",
      "7X"
    ],
    "lat": 40.744149,
    "lon": -73.912549,
    "neighborhood": "Woodside",
    "zip_code": "11377"
  },
  {
    "station_id": "714",
    "slug": "46-st-bliss-st",
    "name": "46 St-Bliss St",
    "borough": "Queens",
    "routes": [
      "7",
      "7X"
    ],
    "lat": 40.743132,
    "lon": -73.918435,
    "neighborhood": "Sunnyside",
    "zip_code": "11104"
  },
  {
    "station_id": "715",
    "slug": "40-st-lowery-st",
    "name": "40 St-Lowery St",
    "borough": "Queens",
    "routes": [
      "7",
      "7X"
    ],
    "lat": 40.743781,
    "lon": -73.924016,
    "neighborhood": "Sunnyside",
    "zip_code": "11104"
  },
  {
    "station_id": "716",
    "slug": "33-st-rawson-st",
    "name": "33 St-Rawson St",
    "borough": "Queens",
    "routes": [
      "7",
      "7X"
    ],
    "lat": 40.744587,
    "lon": -73.930997,
    "neighborhood": "Sunnyside",
    "zip_code": "11101"
  },
  {
    "station_id": "718",
    "slug": "queensboro-plaza",
    "name": "Queensboro Plaza",
    "borough": "Queens",
    "routes": [
      "7",
      "7X"
    ],
    "lat": 40.750582,
    "lon": -73.940202,
    "neighborhood": "Long Island City",
    "zip_code": "11101"
  },
  {
    "station_id": "719",
    "slug": "court-sq",
    "name": "Court Sq",
    "borough": "Queens",
    "routes": [
      "7",
      "7X"
    ],
    "lat": 40.747023,
    "lon": -73.945264,
    "neighborhood": "Hunters Point",
    "zip_code": "11101"
  },
  {
    "station_id": "720",
    "slug": "hunters-point-av",
    "name": "Hunters Point Av",
    "borough": "Queens",
    "routes": [
      "7",
      "7X"
    ],
    "lat": 40.742216,
    "lon": -73.948916,
    "neighborhood": "Hunters Point",
    "zip_code": "11101"
  },
  {
    "station_id": "721",
    "slug": "vernon-blvd-jackson-av",
    "name": "Vernon Blvd-Jackson Av",
    "borough": "Queens",
    "routes": [
      "7",
      "7X"
    ],
    "lat": 40.742626,
    "lon": -73.953581,
    "neighborhood": "Hunters Point",
    "zip_code": "11101"
  },
  {
    "station_id": "723",
    "slug": "grand-central-42-st",
    "name": "Grand Central-42 St",
    "borough": "Manhattan",
    "routes": [
      "7",
      "7X"
    ],
    "lat": 40.751431,
    "lon": -73.976041,
    "neighborhood": "Murray Hill",
    "zip_code": "10017"
  },
  {
    "station_id": "724",
    "slug": "5-av",
    "name": "5 Av",
    "borough": "Manhattan",
    "routes": [
      "7",
      "7X"
    ],
    "lat": 40.753821,
    "lon": -73.981963,
    "neighborhood": "Garment District",
    "zip_code": "10018"
  },
  {
    "station_id": "725",
    "slug": "times-sq-42-st",
    "name": "Times Sq-42 St",
    "borough": "Manhattan",
    "routes": [
      "7",
      "7X"
    ],
    "lat": 40.755477,
    "lon": -73.987691,
    "neighborhood": "Theater District",
    "zip_code": "10018"
  },
  {
    "station_id": "726",
    "slug": "34-st-hudson-yards",
    "name": "34 St-Hudson Yards",
    "borough": "Manhattan",
    "routes": [
      "7",
      "7X"
    ],
    "lat": 40.755882,
    "lon": -74.00191,
    "neighborhood": "Hell's Kitchen",
    "zip_code": "10001"
  },
  {
    "station_id": "901",
    "slug": "grand-central-42-st",
    "name": "Grand Central-42 St",
    "borough": "Manhattan",
    "routes": [
      "GS"
    ],
    "lat": 40.752769,
    "lon": -73.979189,
    "neighborhood": "Midtown East",
    "zip_code": "10017"
  },
  {
    "station_id": "902",
    "slug": "times-sq-42-st",
    "name": "Times Sq-42 St",
    "borough": "Manhattan",
    "routes": [
      "GS"
    ],
    "lat": 40.755983,
    "lon": -73.986229,
    "neighborhood": "Theater District",
    "zip_code": "10036"
  },
  {
    "station_id": "A02",
    "slug": "inwood-207-st",
    "name": "Inwood-207 St",
    "borough": "Manhattan",
    "routes": [
      "A"
    ],
    "lat": 40.868072,
    "lon": -73.919899,
    "neighborhood": "Inwood",
    "zip_code": "10034"
  },
  {
    "station_id": "A03",
    "slug": "dyckman-st",
    "name": "Dyckman St",
    "borough": "Manhattan",
    "routes": [
      "A"
    ],
    "lat": 40.865491,
    "lon": -73.927271,
    "neighborhood": "Inwood",
    "zip_code": "10034"
  },
  {
    "station_id": "A05",
    "slug": "190-st",
    "name": "190 St",
    "borough": "Manhattan",
    "routes": [
      "A"
    ],
    "lat": 40.859022,
    "lon": -73.93418,
    "neighborhood": "Washington Heights",
    "zip_code": "10040"
  },
  {
    "station_id": "A06",
    "slug": "181-st",
    "name": "181 St",
    "borough": "Manhattan",
    "routes": [
      "A"
    ],
    "lat": 40.851695,
    "lon": -73.937969,
    "neighborhood": "Washington Heights",
    "zip_code": "10033"
  },
  {
    "station_id": "A07",
    "slug": "175-st",
    "name": "175 St",
    "borough": "Manhattan",
    "routes": [
      "A"
    ],
    "lat": 40.847391,
    "lon": -73.939704,
    "neighborhood": "Washington Heights",
    "zip_code": "10033"
  },
  {
    "station_id": "A09",
    "slug": "168-st",
    "name": "168 St",
    "borough": "Manhattan",
    "routes": [
      "C",
      "A"
    ],
    "lat": 40.840719,
    "lon": -73.939561,
    "neighborhood": "Washington Heights",
    "zip_code": "10032"
  },
  {
    "station_id": "A10",
    "slug": "163-st-amsterdam-av",
    "name": "163 St-Amsterdam Av",
    "borough": "Manhattan",
    "routes": [
      "C",
      "A"
    ],
    "lat": 40.836013,
    "lon": -73.939892,
    "neighborhood": "Washington Heights",
    "zip_code": "10032"
  },
  {
    "station_id": "A11",
    "slug": "155-st",
    "name": "155 St",
    "borough": "Manhattan",
    "routes": [
      "C",
      "A"
    ],
    "lat": 40.830518,
    "lon": -73.941514,
    "neighborhood": "Hamilton Heights",
    "zip_code": "10032"
  },
  {
    "station_id": "A12",
    "slug": "145-st",
    "name": "145 St",
    "borough": "Manhattan",
    "routes": [
      "C",
      "A"
    ],
    "lat": 40.824783,
    "lon": -73.944216,
    "neighborhood": "Hamilton Heights",
    "zip_code": "10031"
  },
  {
    "station_id": "A14",
    "slug": "135-st",
    "name": "135 St",
    "borough": "Manhattan",
    "routes": [
      "C",
      "A",
      "B"
    ],
    "lat": 40.817894,
    "lon": -73.947649,
    "neighborhood": "Hamilton Heights",
    "zip_code": "10031"
  },
  {
    "station_id": "A15",
    "slug": "125-st",
    "name": "125 St",
    "borough": "Manhattan",
    "routes": [
      "D",
      "C",
      "A",
      "B"
    ],
    "lat": 40.811109,
    "lon": -73.952343,
    "neighborhood": "Harlem",
    "zip_code": "10027"
  },
  {
    "station_id": "A16",
    "slug": "116-st",
    "name": "116 St",
    "borough": "Manhattan",
    "routes": [
      "C",
      "A",
      "B"
    ],
    "lat": 40.805085,
    "lon": -73.954882,
    "neighborhood": "Harlem",
    "zip_code": "10026"
  },
  {
    "station_id": "A17",
    "slug": "cathedral-pkwy-110-st",
    "name": "Cathedral Pkwy (110 St)",
    "borough": "Manhattan",
    "routes": [
      "C",
      "A",
      "B"
    ],
    "lat": 40.800603,
    "lon": -73.958161,
    "neighborhood": "Harlem",
    "zip_code": "10026"
  },
  {
    "station_id": "A18",
    "slug": "103-st",
    "name": "103 St",
    "borough": "Manhattan",
    "routes": [
      "C",
      "A",
      "B"
    ],
    "lat": 40.796092,
    "lon": -73.961454,
    "neighborhood": "Central Park",
    "zip_code": "10025"
  },
  {
    "station_id": "A19",
    "slug": "96-st",
    "name": "96 St",
    "borough": "Manhattan",
    "routes": [
      "C",
      "A",
      "B"
    ],
    "lat": 40.791642,
    "lon": -73.964696,
    "neighborhood": "Central Park",
    "zip_code": "10025"
  },
  {
    "station_id": "A20",
    "slug": "86-st",
    "name": "86 St",
    "borough": "Manhattan",
    "routes": [
      "C",
      "A",
      "B"
    ],
    "lat": 40.785868,
    "lon": -73.968916,
    "neighborhood": "Central Park",
    "zip_code": "10024"
  },
  {
    "station_id": "A21",
    "slug": "81-st-museum-of-natural-history",
    "name": "81 St-Museum of Natural History",
    "borough": "Manhattan",
    "routes": [
      "C",
      "A",
      "B"
    ],
    "lat": 40.781433,
    "lon": -73.972143,
    "neighborhood": "Central Park",
    "zip_code": "10024"
  },
  {
    "station_id": "A22",
    "slug": "72-st",
    "name": "72 St",
    "borough": "Manhattan",
    "routes": [
      "C",
      "A",
      "B"
    ],
    "lat": 40.775594,
    "lon": -73.97641,
    "neighborhood": "Central Park",
    "zip_code": "10023"
  },
  {
    "station_id": "A24",
    "slug": "59-st-columbus-circle",
    "name": "59 St-Columbus Circle",
    "borough": "Manhattan",
    "routes": [
      "D",
      "C",
      "A",
      "B"
    ],
    "lat": 40.768296,
    "lon": -73.981736,
    "neighborhood": "Hell's Kitchen",
    "zip_code": "10023"
  },
  {
    "station_id": "A25",
    "slug": "50-st",
    "name": "50 St",
    "borough": "Manhattan",
    "routes": [
      "C",
      "A",
      "E"
    ],
    "lat": 40.762456,
    "lon": -73.985984,
    "neighborhood": "Unknown",
    "zip_code": "10019"
  },
  {
    "station_id": "A27",
    "slug": "42-st-port-authority-bus-terminal",
    "name": "42 St-Port Authority Bus Terminal",
    "borough": "Manhattan",
    "routes": [
      "C",
      "A",
      "E"
    ],
    "lat": 40.757308,
    "lon": -73.989735,
    "neighborhood": "Unknown",
    "zip_code": "10036"
  },
  {
    "station_id": "A28",
    "slug": "34-st-penn-station",
    "name": "34 St-Penn Station",
    "borough": "Manhattan",
    "routes": [
      "C",
      "A",
      "E"
    ],
    "lat": 40.752287,
    "lon": -73.993391,
    "neighborhood": "Garment District",
    "zip_code": "10001"
  },
  {
    "station_id": "A30",
    "slug": "23-st",
    "name": "23 St",
    "borough": "Manhattan",
    "routes": [
      "C",
      "A",
      "E"
    ],
    "lat": 40.745906,
    "lon": -73.998041,
    "neighborhood": "Chelsea",
    "zip_code": "10011"
  },
  {
    "station_id": "A31",
    "slug": "14-st",
    "name": "14 St",
    "borough": "Manhattan",
    "routes": [
      "C",
      "A",
      "E"
    ],
    "lat": 40.740893,
    "lon": -74.00169,
    "neighborhood": "Chelsea",
    "zip_code": "10011"
  },
  {
    "station_id": "A32",
    "slug": "w-4-st-wash-sq",
    "name": "W 4 St-Wash Sq",
    "borough": "Manhattan",
    "routes": [
      "C",
      "A",
      "E"
    ],
    "lat": 40.732338,
    "lon": -74.000495,
    "neighborhood": "West Village",
    "zip_code": "10014"
  },
  {
    "station_id": "A33",
    "slug": "spring-st",
    "name": "Spring St",
    "borough": "Manhattan",
    "routes": [
      "C",
      "A",
      "E"
    ],
    "lat": 40.726227,
    "lon": -74.003739,
    "neighborhood": "Hudson Square",
    "zip_code": "10012"
  },
  {
    "station_id": "A34",
    "slug": "canal-st",
    "name": "Canal St",
    "borough": "Manhattan",
    "routes": [
      "C",
      "A",
      "E"
    ],
    "lat": 40.720824,
    "lon": -74.005229,
    "neighborhood": "TriBeCa",
    "zip_code": "10013"
  },
  {
    "station_id": "A36",
    "slug": "chambers-st",
    "name": "Chambers St",
    "borough": "Manhattan",
    "routes": [
      "C",
      "A"
    ],
    "lat": 40.714111,
    "lon": -74.008585,
    "neighborhood": "TriBeCa",
    "zip_code": "10007"
  },
  {
    "station_id": "A38",
    "slug": "fulton-st",
    "name": "Fulton St",
    "borough": "Manhattan",
    "routes": [
      "C",
      "A"
    ],
    "lat": 40.710197,
    "lon": -74.007691,
    "neighborhood": "Financial District",
    "zip_code": "10038"
  },
  {
    "station_id": "A40",
    "slug": "high-st",
    "name": "High St",
    "borough": "Brooklyn",
    "routes": [
      "C",
      "A"
    ],
    "lat": 40.699337,
    "lon": -73.990531,
    "neighborhood": "Downtown Brooklyn",
    "zip_code": "11201"
  },
  {
    "station_id": "A41",
    "slug": "jay-st-metrotech",
    "name": "Jay St-MetroTech",
    "borough": "Brooklyn",
    "routes": [
      "C",
      "A",
      "FX",
      "F"
    ],
    "lat": 40.692338,
    "lon": -73.987342,
    "neighborhood": "Downtown Brooklyn",
    "zip_code": "11201"
  },
  {
    "station_id": "A42",
    "slug": "hoyt-schermerhorn-sts",
    "name": "Hoyt-Schermerhorn Sts",
    "borough": "Brooklyn",
    "routes": [
      "G",
      "C",
      "A"
    ],
    "lat": 40.688484,
    "lon": -73.985001,
    "neighborhood": "Boerum Hill",
    "zip_code": "11217"
  },
  {
    "station_id": "A44",
    "slug": "clinton-washington-avs",
    "name": "Clinton-Washington Avs",
    "borough": "Brooklyn",
    "routes": [
      "C",
      "A"
    ],
    "lat": 40.683263,
    "lon": -73.965838,
    "neighborhood": "Clinton Hill",
    "zip_code": "11238"
  },
  {
    "station_id": "A43",
    "slug": "lafayette-av",
    "name": "Lafayette Av",
    "borough": "Brooklyn",
    "routes": [
      "C",
      "A"
    ],
    "lat": 40.686113,
    "lon": -73.973946,
    "neighborhood": "Fort Greene",
    "zip_code": "11217"
  },
  {
    "station_id": "A45",
    "slug": "franklin-av",
    "name": "Franklin Av",
    "borough": "Brooklyn",
    "routes": [
      "C",
      "A"
    ],
    "lat": 40.68138,
    "lon": -73.956848,
    "neighborhood": "Bedford",
    "zip_code": "11238"
  },
  {
    "station_id": "A46",
    "slug": "nostrand-av",
    "name": "Nostrand Av",
    "borough": "Brooklyn",
    "routes": [
      "C",
      "A"
    ],
    "lat": 40.680438,
    "lon": -73.950426,
    "neighborhood": "Bedford",
    "zip_code": "11216"
  },
  {
    "station_id": "A47",
    "slug": "kingston-throop-avs",
    "name": "Kingston-Throop Avs",
    "borough": "Brooklyn",
    "routes": [
      "C",
      "A"
    ],
    "lat": 40.679921,
    "lon": -73.940858,
    "neighborhood": "Stuyvesant Heights",
    "zip_code": "11216"
  },
  {
    "station_id": "A48",
    "slug": "utica-av",
    "name": "Utica Av",
    "borough": "Brooklyn",
    "routes": [
      "C",
      "A"
    ],
    "lat": 40.679364,
    "lon": -73.930729,
    "neighborhood": "Stuyvesant Heights",
    "zip_code": "11213"
  },
  {
    "station_id": "A49",
    "slug": "ralph-av",
    "name": "Ralph Av",
    "borough": "Brooklyn",
    "routes": [
      "C",
      "A"
    ],
    "lat": 40.678822,
    "lon": -73.920786,
    "neighborhood": "Stuyvesant Heights",
    "zip_code": "11233"
  },
  {
    "station_id": "A51",
    "slug": "broadway-junction",
    "name": "Broadway Junction",
    "borough": "Brooklyn",
    "routes": [
      "C",
      "A"
    ],
    "lat": 40.678334,
    "lon": -73.905316,
    "neighborhood": "Stuyvesant Heights",
    "zip_code": "11233"
  },
  {
    "station_id": "A50",
    "slug": "rockaway-av",
    "name": "Rockaway Av",
    "borough": "Brooklyn",
    "routes": [
      "C",
      "A"
    ],
    "lat": 40.67834,
    "lon": -73.911946,
    "neighborhood": "Stuyvesant Heights",
    "zip_code": "11233"
  },
  {
    "station_id": "A52",
    "slug": "liberty-av",
    "name": "Liberty Av",
    "borough": "Brooklyn",
    "routes": [
      "C",
      "A"
    ],
    "lat": 40.674542,
    "lon": -73.896548,
    "neighborhood": "East New York",
    "zip_code": "11207"
  },
  {
    "station_id": "A53",
    "slug": "van-siclen-av",
    "name": "Van Siclen Av",
    "borough": "Brooklyn",
    "routes": [
      "C",
      "A"
    ],
    "lat": 40.67271,
    "lon": -73.890358,
    "neighborhood": "East New York",
    "zip_code": "11207"
  },
  {
    "station_id": "A54",
    "slug": "shepherd-av",
    "name": "Shepherd Av",
    "borough": "Brooklyn",
    "routes": [
      "C",
      "A"
    ],
    "lat": 40.67413,
    "lon": -73.88075,
    "neighborhood": "East New York",
    "zip_code": "11208"
  },
  {
    "station_id": "A55",
    "slug": "euclid-av",
    "name": "Euclid Av",
    "borough": "Brooklyn",
    "routes": [
      "C",
      "A"
    ],
    "lat": 40.675377,
    "lon": -73.872106,
    "neighborhood": "City Line",
    "zip_code": "11208"
  },
  {
    "station_id": "A57",
    "slug": "grant-av",
    "name": "Grant Av",
    "borough": "Brooklyn",
    "routes": [
      "A"
    ],
    "lat": 40.677044,
    "lon": -73.86505,
    "neighborhood": "City Line",
    "zip_code": "11208"
  },
  {
    "station_id": "A59",
    "slug": "80-st",
    "name": "80 St",
    "borough": "Queens",
    "routes": [
      "A"
    ],
    "lat": 40.679371,
    "lon": -73.858992,
    "neighborhood": "Ozone Park",
    "zip_code": "11417"
  },
  {
    "station_id": "A60",
    "slug": "88-st",
    "name": "88 St",
    "borough": "Queens",
    "routes": [
      "A"
    ],
    "lat": 40.679843,
    "lon": -73.85147,
    "neighborhood": "Ozone Park",
    "zip_code": "11417"
  },
  {
    "station_id": "A61",
    "slug": "rockaway-blvd",
    "name": "Rockaway Blvd",
    "borough": "Queens",
    "routes": [
      "A"
    ],
    "lat": 40.680429,
    "lon": -73.843853,
    "neighborhood": "Ozone Park",
    "zip_code": "11417"
  },
  {
    "station_id": "A63",
    "slug": "104-st",
    "name": "104 St",
    "borough": "Queens",
    "routes": [
      "A"
    ],
    "lat": 40.681711,
    "lon": -73.837683,
    "neighborhood": "Ozone Park",
    "zip_code": "11417"
  },
  {
    "station_id": "A64",
    "slug": "111-st",
    "name": "111 St",
    "borough": "Queens",
    "routes": [
      "A"
    ],
    "lat": 40.684331,
    "lon": -73.832163,
    "neighborhood": "Richmond Hill",
    "zip_code": "11419"
  },
  {
    "station_id": "A65",
    "slug": "ozone-park-lefferts-blvd",
    "name": "Ozone Park-Lefferts Blvd",
    "borough": "Queens",
    "routes": [
      "A"
    ],
    "lat": 40.685951,
    "lon": -73.825798,
    "neighborhood": "Richmond Hill",
    "zip_code": "11419"
  },
  {
    "station_id": "B06",
    "slug": "roosevelt-island",
    "name": "Roosevelt Island",
    "borough": "Manhattan",
    "routes": [
      "F",
      "FX"
    ],
    "lat": 40.759145,
    "lon": -73.95326,
    "neighborhood": "Roosevelt Island",
    "zip_code": "10044"
  },
  {
    "station_id": "B04",
    "slug": "21-st-queensbridge",
    "name": "21 St-Queensbridge",
    "borough": "Queens",
    "routes": [
      "F",
      "FX"
    ],
    "lat": 40.754203,
    "lon": -73.942836,
    "neighborhood": "Long Island City",
    "zip_code": "11101"
  },
  {
    "station_id": "B08",
    "slug": "lexington-av-63-st",
    "name": "Lexington Av/63 St",
    "borough": "Manhattan",
    "routes": [
      "N",
      "Q",
      "R",
      "FX",
      "F"
    ],
    "lat": 40.764629,
    "lon": -73.966113,
    "neighborhood": "Lenox Hill",
    "zip_code": "10065"
  },
  {
    "station_id": "B10",
    "slug": "57-st",
    "name": "57 St",
    "borough": "Manhattan",
    "routes": [
      "F",
      "FX"
    ],
    "lat": 40.763972,
    "lon": -73.97745,
    "neighborhood": "Midtown East",
    "zip_code": "10019"
  },
  {
    "station_id": "B12",
    "slug": "9-av",
    "name": "9 Av",
    "borough": "Brooklyn",
    "routes": [
      "D"
    ],
    "lat": 40.646292,
    "lon": -73.994324,
    "neighborhood": "Sunset Park",
    "zip_code": "11219"
  },
  {
    "station_id": "B13",
    "slug": "fort-hamilton-pkwy",
    "name": "Fort Hamilton Pkwy",
    "borough": "Brooklyn",
    "routes": [
      "D"
    ],
    "lat": 40.640914,
    "lon": -73.994304,
    "neighborhood": "Sunset Park",
    "zip_code": "11219"
  },
  {
    "station_id": "B14",
    "slug": "50-st",
    "name": "50 St",
    "borough": "Brooklyn",
    "routes": [
      "D"
    ],
    "lat": 40.63626,
    "lon": -73.994791,
    "neighborhood": "Borough Park",
    "zip_code": "11219"
  },
  {
    "station_id": "B15",
    "slug": "55-st",
    "name": "55 St",
    "borough": "Brooklyn",
    "routes": [
      "D"
    ],
    "lat": 40.631435,
    "lon": -73.995476,
    "neighborhood": "Borough Park",
    "zip_code": "11219"
  },
  {
    "station_id": "B16",
    "slug": "62-st",
    "name": "62 St",
    "borough": "Brooklyn",
    "routes": [
      "D"
    ],
    "lat": 40.626472,
    "lon": -73.996895,
    "neighborhood": "Bensonhurst",
    "zip_code": "11219"
  },
  {
    "station_id": "B17",
    "slug": "71-st",
    "name": "71 St",
    "borough": "Brooklyn",
    "routes": [
      "D"
    ],
    "lat": 40.619589,
    "lon": -73.998864,
    "neighborhood": "Bensonhurst",
    "zip_code": "11228"
  },
  {
    "station_id": "B18",
    "slug": "79-st",
    "name": "79 St",
    "borough": "Brooklyn",
    "routes": [
      "D"
    ],
    "lat": 40.613501,
    "lon": -74.00061,
    "neighborhood": "Bensonhurst",
    "zip_code": "11214"
  },
  {
    "station_id": "B19",
    "slug": "18-av",
    "name": "18 Av",
    "borough": "Brooklyn",
    "routes": [
      "D"
    ],
    "lat": 40.607954,
    "lon": -74.001736,
    "neighborhood": "Bensonhurst",
    "zip_code": "11214"
  },
  {
    "station_id": "B20",
    "slug": "20-av",
    "name": "20 Av",
    "borough": "Brooklyn",
    "routes": [
      "D"
    ],
    "lat": 40.604556,
    "lon": -73.998168,
    "neighborhood": "Bath Beach",
    "zip_code": "11214"
  },
  {
    "station_id": "B21",
    "slug": "bay-pkwy",
    "name": "Bay Pkwy",
    "borough": "Brooklyn",
    "routes": [
      "D"
    ],
    "lat": 40.601875,
    "lon": -73.993728,
    "neighborhood": "Bath Beach",
    "zip_code": "11214"
  },
  {
    "station_id": "B22",
    "slug": "25-av",
    "name": "25 Av",
    "borough": "Brooklyn",
    "routes": [
      "D"
    ],
    "lat": 40.597704,
    "lon": -73.986829,
    "neighborhood": "Bensonhurst",
    "zip_code": "11214"
  },
  {
    "station_id": "B23",
    "slug": "bay-50-st",
    "name": "Bay 50 St",
    "borough": "Brooklyn",
    "routes": [
      "D"
    ],
    "lat": 40.588841,
    "lon": -73.983765,
    "neighborhood": "Bath Beach",
    "zip_code": "11223"
  },
  {
    "station_id": "D01",
    "slug": "norwood-205-st",
    "name": "Norwood-205 St",
    "borough": "Bronx",
    "routes": [
      "D"
    ],
    "lat": 40.874811,
    "lon": -73.878855,
    "neighborhood": "Norwood",
    "zip_code": "10467"
  },
  {
    "station_id": "D03",
    "slug": "bedford-park-blvd",
    "name": "Bedford Park Blvd",
    "borough": "Bronx",
    "routes": [
      "D",
      "B"
    ],
    "lat": 40.873244,
    "lon": -73.887138,
    "neighborhood": "Bedford Park",
    "zip_code": "10458"
  },
  {
    "station_id": "D04",
    "slug": "kingsbridge-rd",
    "name": "Kingsbridge Rd",
    "borough": "Bronx",
    "routes": [
      "D",
      "B"
    ],
    "lat": 40.866978,
    "lon": -73.893509,
    "neighborhood": "Fordham",
    "zip_code": "10458"
  },
  {
    "station_id": "D05",
    "slug": "fordham-rd",
    "name": "Fordham Rd",
    "borough": "Bronx",
    "routes": [
      "D",
      "B"
    ],
    "lat": 40.861296,
    "lon": -73.897749,
    "neighborhood": "Fordham",
    "zip_code": "10458"
  },
  {
    "station_id": "D06",
    "slug": "182-183-sts",
    "name": "182-183 Sts",
    "borough": "Bronx",
    "routes": [
      "D",
      "B"
    ],
    "lat": 40.856093,
    "lon": -73.900741,
    "neighborhood": "Tremont",
    "zip_code": "10457"
  },
  {
    "station_id": "D07",
    "slug": "tremont-av",
    "name": "Tremont Av",
    "borough": "Bronx",
    "routes": [
      "D",
      "B"
    ],
    "lat": 40.85041,
    "lon": -73.905227,
    "neighborhood": "Tremont",
    "zip_code": "10457"
  },
  {
    "station_id": "D08",
    "slug": "174-175-sts",
    "name": "174-175 Sts",
    "borough": "Bronx",
    "routes": [
      "D",
      "B"
    ],
    "lat": 40.8459,
    "lon": -73.910136,
    "neighborhood": "Tremont",
    "zip_code": "10457"
  },
  {
    "station_id": "D09",
    "slug": "170-st",
    "name": "170 St",
    "borough": "Bronx",
    "routes": [
      "D",
      "B"
    ],
    "lat": 40.839306,
    "lon": -73.9134,
    "neighborhood": "Mount Eden",
    "zip_code": "10456"
  },
  {
    "station_id": "D10",
    "slug": "167-st",
    "name": "167 St",
    "borough": "Bronx",
    "routes": [
      "D",
      "B"
    ],
    "lat": 40.833771,
    "lon": -73.91844,
    "neighborhood": "Grand Concourse",
    "zip_code": "10452"
  },
  {
    "station_id": "D11",
    "slug": "161-st-yankee-stadium",
    "name": "161 St-Yankee Stadium",
    "borough": "Bronx",
    "routes": [
      "D",
      "B"
    ],
    "lat": 40.827905,
    "lon": -73.925651,
    "neighborhood": "Grand Concourse",
    "zip_code": "10452"
  },
  {
    "station_id": "D12",
    "slug": "155-st",
    "name": "155 St",
    "borough": "Manhattan",
    "routes": [
      "D",
      "B"
    ],
    "lat": 40.830135,
    "lon": -73.938209,
    "neighborhood": "Harlem",
    "zip_code": "10039"
  },
  {
    "station_id": "D13",
    "slug": "145-st",
    "name": "145 St",
    "borough": "Manhattan",
    "routes": [
      "D",
      "B"
    ],
    "lat": 40.824783,
    "lon": -73.944216,
    "neighborhood": "Hamilton Heights",
    "zip_code": "10031"
  },
  {
    "station_id": "D14",
    "slug": "7-av",
    "name": "7 Av",
    "borough": "Manhattan",
    "routes": [
      "D",
      "B",
      "E"
    ],
    "lat": 40.762862,
    "lon": -73.981637,
    "neighborhood": "Theater District",
    "zip_code": "10019"
  },
  {
    "station_id": "D15",
    "slug": "47-50-sts-rockefeller-ctr",
    "name": "47-50 Sts-Rockefeller Ctr",
    "borough": "Manhattan",
    "routes": [
      "D",
      "B",
      "M",
      "FX",
      "F"
    ],
    "lat": 40.758663,
    "lon": -73.981329,
    "neighborhood": "Rockefeller Center",
    "zip_code": "10019"
  },
  {
    "station_id": "D16",
    "slug": "42-st-bryant-pk",
    "name": "42 St-Bryant Pk",
    "borough": "Manhattan",
    "routes": [
      "D",
      "B",
      "M",
      "FX",
      "F"
    ],
    "lat": 40.754222,
    "lon": -73.984569,
    "neighborhood": "Theater District",
    "zip_code": "10036"
  },
  {
    "station_id": "D17",
    "slug": "34-st-herald-sq",
    "name": "34 St-Herald Sq",
    "borough": "Manhattan",
    "routes": [
      "D",
      "B",
      "M",
      "FX",
      "F"
    ],
    "lat": 40.749719,
    "lon": -73.987823,
    "neighborhood": "Koreatown",
    "zip_code": "10001"
  },
  {
    "station_id": "D18",
    "slug": "23-st",
    "name": "23 St",
    "borough": "Manhattan",
    "routes": [
      "F",
      "FX",
      "M"
    ],
    "lat": 40.742878,
    "lon": -73.992821,
    "neighborhood": "The Flatiron District",
    "zip_code": "10010"
  },
  {
    "station_id": "D19",
    "slug": "14-st",
    "name": "14 St",
    "borough": "Manhattan",
    "routes": [
      "F",
      "FX",
      "M"
    ],
    "lat": 40.738228,
    "lon": -73.996209,
    "neighborhood": "Chelsea",
    "zip_code": "10011"
  },
  {
    "station_id": "D20",
    "slug": "w-4-st-wash-sq",
    "name": "W 4 St-Wash Sq",
    "borough": "Manhattan",
    "routes": [
      "D",
      "B",
      "M",
      "FX",
      "F"
    ],
    "lat": 40.732338,
    "lon": -74.000495,
    "neighborhood": "West Village",
    "zip_code": "10014"
  },
  {
    "station_id": "D21",
    "slug": "broadway-lafayette-st",
    "name": "Broadway-Lafayette St",
    "borough": "Manhattan",
    "routes": [
      "D",
      "B",
      "M",
      "FX",
      "F"
    ],
    "lat": 40.725297,
    "lon": -73.996204,
    "neighborhood": "SoHo",
    "zip_code": "10012"
  },
  {
    "station_id": "D22",
    "slug": "grand-st",
    "name": "Grand St",
    "borough": "Manhattan",
    "routes": [
      "D",
      "B"
    ],
    "lat": 40.718267,
    "lon": -73.993753,
    "neighborhood": "The Bowery",
    "zip_code": "10002"
  },
  {
    "station_id": "D24",
    "slug": "atlantic-av-barclays-ctr",
    "name": "Atlantic Av-Barclays Ctr",
    "borough": "Brooklyn",
    "routes": [
      "Q",
      "B"
    ],
    "lat": 40.68446,
    "lon": -73.97689,
    "neighborhood": "Fort Greene",
    "zip_code": "11217"
  },
  {
    "station_id": "D25",
    "slug": "7-av",
    "name": "7 Av",
    "borough": "Brooklyn",
    "routes": [
      "Q",
      "B"
    ],
    "lat": 40.67705,
    "lon": -73.972367,
    "neighborhood": "Park Slope",
    "zip_code": "11217"
  },
  {
    "station_id": "D26",
    "slug": "prospect-park",
    "name": "Prospect Park",
    "borough": "Brooklyn",
    "routes": [
      "Q",
      "FS",
      "B"
    ],
    "lat": 40.661614,
    "lon": -73.962246,
    "neighborhood": "Prospect Lefferts Gardens",
    "zip_code": "11225"
  },
  {
    "station_id": "D27",
    "slug": "parkside-av",
    "name": "Parkside Av",
    "borough": "Brooklyn",
    "routes": [
      "Q",
      "B"
    ],
    "lat": 40.655292,
    "lon": -73.961495,
    "neighborhood": "Prospect Lefferts Gardens",
    "zip_code": "11225"
  },
  {
    "station_id": "D28",
    "slug": "church-av",
    "name": "Church Av",
    "borough": "Brooklyn",
    "routes": [
      "Q",
      "B"
    ],
    "lat": 40.650527,
    "lon": -73.962982,
    "neighborhood": "Prospect Park South",
    "zip_code": "11226"
  },
  {
    "station_id": "D29",
    "slug": "beverley-rd",
    "name": "Beverley Rd",
    "borough": "Brooklyn",
    "routes": [
      "Q",
      "B"
    ],
    "lat": 40.644031,
    "lon": -73.964492,
    "neighborhood": "Ditmas Park",
    "zip_code": "11226"
  },
  {
    "station_id": "D30",
    "slug": "cortelyou-rd",
    "name": "Cortelyou Rd",
    "borough": "Brooklyn",
    "routes": [
      "Q",
      "B"
    ],
    "lat": 40.640927,
    "lon": -73.963891,
    "neighborhood": "Ditmas Park",
    "zip_code": "11226"
  },
  {
    "station_id": "D31",
    "slug": "newkirk-plaza",
    "name": "Newkirk Plaza",
    "borough": "Brooklyn",
    "routes": [
      "Q",
      "B"
    ],
    "lat": 40.635082,
    "lon": -73.962793,
    "neighborhood": "Ditmas Park",
    "zip_code": "11226"
  },
  {
    "station_id": "D32",
    "slug": "avenue-h",
    "name": "Avenue H",
    "borough": "Brooklyn",
    "routes": [
      "Q",
      "B"
    ],
    "lat": 40.62927,
    "lon": -73.961639,
    "neighborhood": "Ditmas Park",
    "zip_code": "11230"
  },
  {
    "station_id": "D33",
    "slug": "avenue-j",
    "name": "Avenue J",
    "borough": "Brooklyn",
    "routes": [
      "Q",
      "B"
    ],
    "lat": 40.625039,
    "lon": -73.960803,
    "neighborhood": "Midwood",
    "zip_code": "11230"
  },
  {
    "station_id": "D34",
    "slug": "avenue-m",
    "name": "Avenue M",
    "borough": "Brooklyn",
    "routes": [
      "Q",
      "B"
    ],
    "lat": 40.617618,
    "lon": -73.959399,
    "neighborhood": "Midwood",
    "zip_code": "11230"
  },
  {
    "station_id": "D35",
    "slug": "kings-hwy",
    "name": "Kings Hwy",
    "borough": "Brooklyn",
    "routes": [
      "Q",
      "B"
    ],
    "lat": 40.60867,
    "lon": -73.957734,
    "neighborhood": "Homecrest",
    "zip_code": "11229"
  },
  {
    "station_id": "D37",
    "slug": "avenue-u",
    "name": "Avenue U",
    "borough": "Brooklyn",
    "routes": [
      "Q"
    ],
    "lat": 40.5993,
    "lon": -73.955929,
    "neighborhood": "Homecrest",
    "zip_code": "11229"
  },
  {
    "station_id": "D38",
    "slug": "neck-rd",
    "name": "Neck Rd",
    "borough": "Brooklyn",
    "routes": [
      "Q"
    ],
    "lat": 40.595246,
    "lon": -73.955161,
    "neighborhood": "Homecrest",
    "zip_code": "11229"
  },
  {
    "station_id": "D39",
    "slug": "sheepshead-bay",
    "name": "Sheepshead Bay",
    "borough": "Brooklyn",
    "routes": [
      "Q",
      "B"
    ],
    "lat": 40.586896,
    "lon": -73.954155,
    "neighborhood": "Sheepshead Bay",
    "zip_code": "11235"
  },
  {
    "station_id": "D40",
    "slug": "brighton-beach",
    "name": "Brighton Beach",
    "borough": "Brooklyn",
    "routes": [
      "Q",
      "B"
    ],
    "lat": 40.577621,
    "lon": -73.961376,
    "neighborhood": "Brighton Beach",
    "zip_code": "11235"
  },
  {
    "station_id": "D41",
    "slug": "ocean-pkwy",
    "name": "Ocean Pkwy",
    "borough": "Brooklyn",
    "routes": [
      "Q"
    ],
    "lat": 40.576312,
    "lon": -73.968501,
    "neighborhood": "Brighton Beach",
    "zip_code": "11235"
  },
  {
    "station_id": "D42",
    "slug": "w-8-st-ny-aquarium",
    "name": "W 8 St-NY Aquarium",
    "borough": "Brooklyn",
    "routes": [
      "F",
      "Q",
      "FX"
    ],
    "lat": 40.576127,
    "lon": -73.975939,
    "neighborhood": "Coney Island",
    "zip_code": "11224"
  },
  {
    "station_id": "D43",
    "slug": "coney-island-stillwell-av",
    "name": "Coney Island-Stillwell Av",
    "borough": "Brooklyn",
    "routes": [
      "D",
      "N",
      "Q",
      "FX",
      "F"
    ],
    "lat": 40.577422,
    "lon": -73.981233,
    "neighborhood": "Coney Island",
    "zip_code": "11224"
  },
  {
    "station_id": "E01",
    "slug": "world-trade-center",
    "name": "World Trade Center",
    "borough": "Manhattan",
    "routes": [
      "E"
    ],
    "lat": 40.712582,
    "lon": -74.009781,
    "neighborhood": "TriBeCa",
    "zip_code": "10007"
  },
  {
    "station_id": "F01",
    "slug": "jamaica-179-st",
    "name": "Jamaica-179 St",
    "borough": "Queens",
    "routes": [
      "F",
      "FX",
      "E"
    ],
    "lat": 40.712646,
    "lon": -73.783817,
    "neighborhood": "Jamaica",
    "zip_code": "11432"
  },
  {
    "station_id": "F02",
    "slug": "169-st",
    "name": "169 St",
    "borough": "Queens",
    "routes": [
      "F",
      "FX",
      "E"
    ],
    "lat": 40.71047,
    "lon": -73.793604,
    "neighborhood": "Jamaica",
    "zip_code": "11432"
  },
  {
    "station_id": "F03",
    "slug": "parsons-blvd",
    "name": "Parsons Blvd",
    "borough": "Queens",
    "routes": [
      "F",
      "FX",
      "E"
    ],
    "lat": 40.707564,
    "lon": -73.803326,
    "neighborhood": "Briarwood",
    "zip_code": "11432"
  },
  {
    "station_id": "F04",
    "slug": "sutphin-blvd",
    "name": "Sutphin Blvd",
    "borough": "Queens",
    "routes": [
      "F",
      "FX",
      "E"
    ],
    "lat": 40.70546,
    "lon": -73.810708,
    "neighborhood": "Jamaica",
    "zip_code": "11435"
  },
  {
    "station_id": "F05",
    "slug": "briarwood",
    "name": "Briarwood",
    "borough": "Queens",
    "routes": [
      "F",
      "FX",
      "E"
    ],
    "lat": 40.709179,
    "lon": -73.820574,
    "neighborhood": "Kew Gardens",
    "zip_code": "11435"
  },
  {
    "station_id": "F06",
    "slug": "kew-gardens-union-tpke",
    "name": "Kew Gardens-Union Tpke",
    "borough": "Queens",
    "routes": [
      "F",
      "FX",
      "E"
    ],
    "lat": 40.714441,
    "lon": -73.831008,
    "neighborhood": "Forest Hills",
    "zip_code": "11375"
  },
  {
    "station_id": "F07",
    "slug": "75-av",
    "name": "75 Av",
    "borough": "Queens",
    "routes": [
      "F",
      "FX",
      "E"
    ],
    "lat": 40.718331,
    "lon": -73.837324,
    "neighborhood": "Forest Hills",
    "zip_code": "11375"
  },
  {
    "station_id": "F09",
    "slug": "court-sq-23-st",
    "name": "Court Sq-23 St",
    "borough": "Queens",
    "routes": [
      "M",
      "E"
    ],
    "lat": 40.747846,
    "lon": -73.946,
    "neighborhood": "Hunters Point",
    "zip_code": "11101"
  },
  {
    "station_id": "F11",
    "slug": "lexington-av-53-st",
    "name": "Lexington Av/53 St",
    "borough": "Manhattan",
    "routes": [
      "M",
      "E"
    ],
    "lat": 40.757552,
    "lon": -73.969055,
    "neighborhood": "Midtown East",
    "zip_code": "10022"
  },
  {
    "station_id": "F12",
    "slug": "5-av-53-st",
    "name": "5 Av/53 St",
    "borough": "Manhattan",
    "routes": [
      "M",
      "E"
    ],
    "lat": 40.760167,
    "lon": -73.975224,
    "neighborhood": "Midtown East",
    "zip_code": "10022"
  },
  {
    "station_id": "F14",
    "slug": "2-av",
    "name": "2 Av",
    "borough": "Manhattan",
    "routes": [
      "F",
      "FX"
    ],
    "lat": 40.723402,
    "lon": -73.989938,
    "neighborhood": "The Bowery",
    "zip_code": "10003"
  },
  {
    "station_id": "F15",
    "slug": "delancey-st-essex-st",
    "name": "Delancey St-Essex St",
    "borough": "Manhattan",
    "routes": [
      "F",
      "FX"
    ],
    "lat": 40.718611,
    "lon": -73.988114,
    "neighborhood": "Lower East Side",
    "zip_code": "10002"
  },
  {
    "station_id": "F16",
    "slug": "east-broadway",
    "name": "East Broadway",
    "borough": "Manhattan",
    "routes": [
      "F",
      "FX"
    ],
    "lat": 40.713715,
    "lon": -73.990173,
    "neighborhood": "Two Bridges",
    "zip_code": "10002"
  },
  {
    "station_id": "F18",
    "slug": "york-st",
    "name": "York St",
    "borough": "Brooklyn",
    "routes": [
      "F",
      "FX"
    ],
    "lat": 40.701397,
    "lon": -73.986751,
    "neighborhood": "Dumbo",
    "zip_code": "11201"
  },
  {
    "station_id": "F20",
    "slug": "bergen-st",
    "name": "Bergen St",
    "borough": "Brooklyn",
    "routes": [
      "G",
      "F"
    ],
    "lat": 40.686145,
    "lon": -73.990862,
    "neighborhood": "Boerum Hill",
    "zip_code": "11201"
  },
  {
    "station_id": "F22",
    "slug": "smith-9-sts",
    "name": "Smith-9 Sts",
    "borough": "Brooklyn",
    "routes": [
      "G",
      "F"
    ],
    "lat": 40.67358,
    "lon": -73.995959,
    "neighborhood": "Gowanus",
    "zip_code": "11215"
  },
  {
    "station_id": "F21",
    "slug": "carroll-st",
    "name": "Carroll St",
    "borough": "Brooklyn",
    "routes": [
      "G",
      "F"
    ],
    "lat": 40.680303,
    "lon": -73.995048,
    "neighborhood": "Carroll Gardens",
    "zip_code": "11231"
  },
  {
    "station_id": "F23",
    "slug": "4-av-9-st",
    "name": "4 Av-9 St",
    "borough": "Brooklyn",
    "routes": [
      "G",
      "F"
    ],
    "lat": 40.670272,
    "lon": -73.989779,
    "neighborhood": "Gowanus",
    "zip_code": "11215"
  },
  {
    "station_id": "F24",
    "slug": "7-av",
    "name": "7 Av",
    "borough": "Brooklyn",
    "routes": [
      "G",
      "F",
      "FX"
    ],
    "lat": 40.666271,
    "lon": -73.980305,
    "neighborhood": "South Slope",
    "zip_code": "11215"
  },
  {
    "station_id": "F25",
    "slug": "15-st-prospect-park",
    "name": "15 St-Prospect Park",
    "borough": "Brooklyn",
    "routes": [
      "G",
      "F"
    ],
    "lat": 40.660365,
    "lon": -73.979493,
    "neighborhood": "Windsor Terrace",
    "zip_code": "11215"
  },
  {
    "station_id": "F26",
    "slug": "fort-hamilton-pkwy",
    "name": "Fort Hamilton Pkwy",
    "borough": "Brooklyn",
    "routes": [
      "G",
      "F"
    ],
    "lat": 40.650782,
    "lon": -73.975776,
    "neighborhood": "Windsor Terrace",
    "zip_code": "11218"
  },
  {
    "station_id": "F27",
    "slug": "church-av",
    "name": "Church Av",
    "borough": "Brooklyn",
    "routes": [
      "G",
      "F",
      "FX"
    ],
    "lat": 40.644041,
    "lon": -73.979678,
    "neighborhood": "Kensington",
    "zip_code": "11218"
  },
  {
    "station_id": "F29",
    "slug": "ditmas-av",
    "name": "Ditmas Av",
    "borough": "Brooklyn",
    "routes": [
      "F",
      "FX"
    ],
    "lat": 40.636119,
    "lon": -73.978172,
    "neighborhood": "Borough Park",
    "zip_code": "11218"
  },
  {
    "station_id": "F30",
    "slug": "18-av",
    "name": "18 Av",
    "borough": "Brooklyn",
    "routes": [
      "F",
      "FX"
    ],
    "lat": 40.629755,
    "lon": -73.976971,
    "neighborhood": "Kensington",
    "zip_code": "11230"
  },
  {
    "station_id": "F31",
    "slug": "avenue-i",
    "name": "Avenue I",
    "borough": "Brooklyn",
    "routes": [
      "F",
      "FX"
    ],
    "lat": 40.625322,
    "lon": -73.976127,
    "neighborhood": "Borough Park",
    "zip_code": "11230"
  },
  {
    "station_id": "F33",
    "slug": "avenue-n",
    "name": "Avenue N",
    "borough": "Brooklyn",
    "routes": [
      "F",
      "FX"
    ],
    "lat": 40.61514,
    "lon": -73.974197,
    "neighborhood": "Borough Park",
    "zip_code": "11230"
  },
  {
    "station_id": "F32",
    "slug": "bay-pkwy",
    "name": "Bay Pkwy",
    "borough": "Brooklyn",
    "routes": [
      "F",
      "FX"
    ],
    "lat": 40.620769,
    "lon": -73.975264,
    "neighborhood": "Borough Park",
    "zip_code": "11204"
  },
  {
    "station_id": "F34",
    "slug": "avenue-p",
    "name": "Avenue P",
    "borough": "Brooklyn",
    "routes": [
      "F",
      "FX"
    ],
    "lat": 40.608944,
    "lon": -73.973022,
    "neighborhood": "Midwood",
    "zip_code": "11204"
  },
  {
    "station_id": "F35",
    "slug": "kings-hwy",
    "name": "Kings Hwy",
    "borough": "Brooklyn",
    "routes": [
      "F",
      "FX"
    ],
    "lat": 40.603217,
    "lon": -73.972361,
    "neighborhood": "Gravesend",
    "zip_code": "11223"
  },
  {
    "station_id": "F36",
    "slug": "avenue-u",
    "name": "Avenue U",
    "borough": "Brooklyn",
    "routes": [
      "F",
      "FX"
    ],
    "lat": 40.596063,
    "lon": -73.973357,
    "neighborhood": "Gravesend",
    "zip_code": "11223"
  },
  {
    "station_id": "F38",
    "slug": "avenue-x",
    "name": "Avenue X",
    "borough": "Brooklyn",
    "routes": [
      "F",
      "FX"
    ],
    "lat": 40.58962,
    "lon": -73.97425,
    "neighborhood": "Gravesend",
    "zip_code": "11223"
  },
  {
    "station_id": "F39",
    "slug": "neptune-av",
    "name": "Neptune Av",
    "borough": "Brooklyn",
    "routes": [
      "F",
      "FX"
    ],
    "lat": 40.581011,
    "lon": -73.974574,
    "neighborhood": "Coney Island",
    "zip_code": "11224"
  },
  {
    "station_id": "G05",
    "slug": "jamaica-center-parsons-archer",
    "name": "Jamaica Center-Parsons/Archer",
    "borough": "Queens",
    "routes": [
      "Z",
      "J",
      "E"
    ],
    "lat": 40.702147,
    "lon": -73.801109,
    "neighborhood": "Jamaica",
    "zip_code": "11433"
  },
  {
    "station_id": "G06",
    "slug": "sutphin-blvd-archer-av-jfk-airport",
    "name": "Sutphin Blvd-Archer Av-JFK Airport",
    "borough": "Queens",
    "routes": [
      "Z",
      "J",
      "E"
    ],
    "lat": 40.700486,
    "lon": -73.807969,
    "neighborhood": "Jamaica",
    "zip_code": "11435"
  },
  {
    "station_id": "G07",
    "slug": "jamaica-van-wyck",
    "name": "Jamaica-Van Wyck",
    "borough": "Queens",
    "routes": [
      "E"
    ],
    "lat": 40.702566,
    "lon": -73.816859,
    "neighborhood": "Richmond Hill",
    "zip_code": "11418"
  },
  {
    "station_id": "G08",
    "slug": "forest-hills-71-av",
    "name": "Forest Hills-71 Av",
    "borough": "Queens",
    "routes": [
      "R",
      "E",
      "M",
      "FX",
      "F"
    ],
    "lat": 40.721691,
    "lon": -73.844521,
    "neighborhood": "Forest Hills",
    "zip_code": "11375"
  },
  {
    "station_id": "G09",
    "slug": "67-av",
    "name": "67 Av",
    "borough": "Queens",
    "routes": [
      "R",
      "F",
      "M",
      "E"
    ],
    "lat": 40.726523,
    "lon": -73.852719,
    "neighborhood": "Rego Park",
    "zip_code": "11375"
  },
  {
    "station_id": "G10",
    "slug": "63-dr-rego-park",
    "name": "63 Dr-Rego Park",
    "borough": "Queens",
    "routes": [
      "R",
      "F",
      "M",
      "E"
    ],
    "lat": 40.729846,
    "lon": -73.861604,
    "neighborhood": "Rego Park",
    "zip_code": "11374"
  },
  {
    "station_id": "G12",
    "slug": "grand-av-newtown",
    "name": "Grand Av-Newtown",
    "borough": "Queens",
    "routes": [
      "R",
      "F",
      "M",
      "E"
    ],
    "lat": 40.737015,
    "lon": -73.877223,
    "neighborhood": "Elmhurst",
    "zip_code": "11373"
  },
  {
    "station_id": "G11",
    "slug": "woodhaven-blvd",
    "name": "Woodhaven Blvd",
    "borough": "Queens",
    "routes": [
      "R",
      "F",
      "M",
      "E"
    ],
    "lat": 40.733106,
    "lon": -73.869229,
    "neighborhood": "Elmhurst",
    "zip_code": "11373"
  },
  {
    "station_id": "G13",
    "slug": "elmhurst-av",
    "name": "Elmhurst Av",
    "borough": "Queens",
    "routes": [
      "R",
      "F",
      "M",
      "E"
    ],
    "lat": 40.742454,
    "lon": -73.882017,
    "neighborhood": "Elmhurst",
    "zip_code": "11373"
  },
  {
    "station_id": "G14",
    "slug": "jackson-hts-roosevelt-av",
    "name": "Jackson Hts-Roosevelt Av",
    "borough": "Queens",
    "routes": [
      "R",
      "E",
      "M",
      "FX",
      "F"
    ],
    "lat": 40.746644,
    "lon": -73.891338,
    "neighborhood": "Elmhurst",
    "zip_code": "11373"
  },
  {
    "station_id": "G15",
    "slug": "65-st",
    "name": "65 St",
    "borough": "Queens",
    "routes": [
      "R",
      "F",
      "M",
      "E"
    ],
    "lat": 40.749669,
    "lon": -73.898453,
    "neighborhood": "Woodside",
    "zip_code": "11377"
  },
  {
    "station_id": "G16",
    "slug": "northern-blvd",
    "name": "Northern Blvd",
    "borough": "Queens",
    "routes": [
      "R",
      "F",
      "M",
      "E"
    ],
    "lat": 40.752885,
    "lon": -73.906006,
    "neighborhood": "Woodside",
    "zip_code": "11377"
  },
  {
    "station_id": "G18",
    "slug": "46-st",
    "name": "46 St",
    "borough": "Queens",
    "routes": [
      "R",
      "F",
      "M",
      "E"
    ],
    "lat": 40.756312,
    "lon": -73.913333,
    "neighborhood": "Astoria",
    "zip_code": "11103"
  },
  {
    "station_id": "G19",
    "slug": "steinway-st",
    "name": "Steinway St",
    "borough": "Queens",
    "routes": [
      "R",
      "F",
      "M",
      "E"
    ],
    "lat": 40.756879,
    "lon": -73.92074,
    "neighborhood": "Astoria",
    "zip_code": "11103"
  },
  {
    "station_id": "G20",
    "slug": "36-st",
    "name": "36 St",
    "borough": "Queens",
    "routes": [
      "R",
      "F",
      "M",
      "E"
    ],
    "lat": 40.752039,
    "lon": -73.928781,
    "neighborhood": "Astoria",
    "zip_code": "11101"
  },
  {
    "station_id": "G21",
    "slug": "queens-plaza",
    "name": "Queens Plaza",
    "borough": "Queens",
    "routes": [
      "R",
      "M",
      "E"
    ],
    "lat": 40.748973,
    "lon": -73.937243,
    "neighborhood": "Long Island City",
    "zip_code": "11101"
  },
  {
    "station_id": "G22",
    "slug": "court-sq",
    "name": "Court Sq",
    "borough": "Queens",
    "routes": [
      "G"
    ],
    "lat": 40.746554,
    "lon": -73.943832,
    "neighborhood": "Long Island City",
    "zip_code": "11101"
  },
  {
    "station_id": "G24",
    "slug": "21-st",
    "name": "21 St",
    "borough": "Queens",
    "routes": [
      "G"
    ],
    "lat": 40.744065,
    "lon": -73.949724,
    "neighborhood": "Hunters Point",
    "zip_code": "11101"
  },
  {
    "station_id": "G26",
    "slug": "greenpoint-av",
    "name": "Greenpoint Av",
    "borough": "Brooklyn",
    "routes": [
      "G"
    ],
    "lat": 40.731352,
    "lon": -73.954449,
    "neighborhood": "Greenpoint",
    "zip_code": "11222"
  },
  {
    "station_id": "G28",
    "slug": "nassau-av",
    "name": "Nassau Av",
    "borough": "Brooklyn",
    "routes": [
      "G"
    ],
    "lat": 40.724635,
    "lon": -73.951277,
    "neighborhood": "Greenpoint",
    "zip_code": "11222"
  },
  {
    "station_id": "G29",
    "slug": "metropolitan-av",
    "name": "Metropolitan Av",
    "borough": "Brooklyn",
    "routes": [
      "G"
    ],
    "lat": 40.712792,
    "lon": -73.951418,
    "neighborhood": "Williamsburg",
    "zip_code": "11211"
  },
  {
    "station_id": "G30",
    "slug": "broadway",
    "name": "Broadway",
    "borough": "Brooklyn",
    "routes": [
      "G"
    ],
    "lat": 40.706092,
    "lon": -73.950308,
    "neighborhood": "East Williamsburg",
    "zip_code": "11206"
  },
  {
    "station_id": "G31",
    "slug": "flushing-av",
    "name": "Flushing Av",
    "borough": "Brooklyn",
    "routes": [
      "G"
    ],
    "lat": 40.700377,
    "lon": -73.950234,
    "neighborhood": "Williamsburg",
    "zip_code": "11206"
  },
  {
    "station_id": "G32",
    "slug": "myrtle-willoughby-avs",
    "name": "Myrtle-Willoughby Avs",
    "borough": "Brooklyn",
    "routes": [
      "G"
    ],
    "lat": 40.694568,
    "lon": -73.949046,
    "neighborhood": "Bedford",
    "zip_code": "11206"
  },
  {
    "station_id": "G33",
    "slug": "bedford-nostrand-avs",
    "name": "Bedford-Nostrand Avs",
    "borough": "Brooklyn",
    "routes": [
      "G"
    ],
    "lat": 40.689627,
    "lon": -73.953522,
    "neighborhood": "Bedford",
    "zip_code": "11205"
  },
  {
    "station_id": "G34",
    "slug": "classon-av",
    "name": "Classon Av",
    "borough": "Brooklyn",
    "routes": [
      "G"
    ],
    "lat": 40.688873,
    "lon": -73.96007,
    "neighborhood": "Clinton Hill",
    "zip_code": "11205"
  },
  {
    "station_id": "G35",
    "slug": "clinton-washington-avs",
    "name": "Clinton-Washington Avs",
    "borough": "Brooklyn",
    "routes": [
      "G"
    ],
    "lat": 40.688089,
    "lon": -73.966839,
    "neighborhood": "Clinton Hill",
    "zip_code": ""
  },
  {
    "station_id": "G36",
    "slug": "fulton-st",
    "name": "Fulton St",
    "borough": "Brooklyn",
    "routes": [
      "G"
    ],
    "lat": 40.687119,
    "lon": -73.975375,
    "neighborhood": "Fort Greene",
    "zip_code": "11217"
  },
  {
    "station_id": "H01",
    "slug": "aqueduct-racetrack",
    "name": "Aqueduct Racetrack",
    "borough": "Queens",
    "routes": [
      "A"
    ],
    "lat": 40.672369,
    "lon": -73.835254,
    "neighborhood": "Ozone Park",
    "zip_code": "11420"
  },
  {
    "station_id": "H02",
    "slug": "aqueduct-n-conduit-av",
    "name": "Aqueduct-N Conduit Av",
    "borough": "Queens",
    "routes": [
      "A"
    ],
    "lat": 40.668234,
    "lon": -73.834058,
    "neighborhood": "Ozone Park",
    "zip_code": "11420"
  },
  {
    "station_id": "H03",
    "slug": "howard-beach-jfk-airport",
    "name": "Howard Beach-JFK Airport",
    "borough": "Queens",
    "routes": [
      "A"
    ],
    "lat": 40.660476,
    "lon": -73.830301,
    "neighborhood": "Unknown",
    "zip_code": "11414"
  },
  {
    "station_id": "H04",
    "slug": "broad-channel",
    "name": "Broad Channel",
    "borough": "Queens",
    "routes": [
      "A",
      "H"
    ],
    "lat": 40.608382,
    "lon": -73.815925,
    "neighborhood": "Broad Channel",
    "zip_code": "11693"
  },
  {
    "station_id": "H06",
    "slug": "beach-67-st",
    "name": "Beach 67 St",
    "borough": "Queens",
    "routes": [
      "A"
    ],
    "lat": 40.590927,
    "lon": -73.796924,
    "neighborhood": "Arverne",
    "zip_code": "11692"
  },
  {
    "station_id": "H07",
    "slug": "beach-60-st",
    "name": "Beach 60 St",
    "borough": "Queens",
    "routes": [
      "A"
    ],
    "lat": 40.592374,
    "lon": -73.788522,
    "neighborhood": "Arverne",
    "zip_code": "11692"
  },
  {
    "station_id": "H08",
    "slug": "beach-44-st",
    "name": "Beach 44 St",
    "borough": "Queens",
    "routes": [
      "A"
    ],
    "lat": 40.592943,
    "lon": -73.776013,
    "neighborhood": "Edgemere",
    "zip_code": "11691"
  },
  {
    "station_id": "H09",
    "slug": "beach-36-st",
    "name": "Beach 36 St",
    "borough": "Queens",
    "routes": [
      "A"
    ],
    "lat": 40.595398,
    "lon": -73.768175,
    "neighborhood": "Edgemere",
    "zip_code": "11691"
  },
  {
    "station_id": "H10",
    "slug": "beach-25-st",
    "name": "Beach 25 St",
    "borough": "Queens",
    "routes": [
      "A"
    ],
    "lat": 40.600066,
    "lon": -73.761353,
    "neighborhood": "Far Rockaway",
    "zip_code": "11691"
  },
  {
    "station_id": "H11",
    "slug": "far-rockaway-mott-av",
    "name": "Far Rockaway-Mott Av",
    "borough": "Queens",
    "routes": [
      "A"
    ],
    "lat": 40.603995,
    "lon": -73.755405,
    "neighborhood": "Far Rockaway",
    "zip_code": "11691"
  },
  {
    "station_id": "H12",
    "slug": "beach-90-st",
    "name": "Beach 90 St",
    "borough": "Queens",
    "routes": [
      "A",
      "H"
    ],
    "lat": 40.588034,
    "lon": -73.813641,
    "neighborhood": "Seaside",
    "zip_code": "11693"
  },
  {
    "station_id": "H13",
    "slug": "beach-98-st",
    "name": "Beach 98 St",
    "borough": "Queens",
    "routes": [
      "A",
      "H"
    ],
    "lat": 40.585307,
    "lon": -73.820558,
    "neighborhood": "Rockaway Beach",
    "zip_code": "11694"
  },
  {
    "station_id": "H14",
    "slug": "beach-105-st",
    "name": "Beach 105 St",
    "borough": "Queens",
    "routes": [
      "A",
      "H"
    ],
    "lat": 40.583209,
    "lon": -73.827559,
    "neighborhood": "Rockaway Beach",
    "zip_code": "11694"
  },
  {
    "station_id": "H15",
    "slug": "rockaway-park-beach-116-st",
    "name": "Rockaway Park-Beach 116 St",
    "borough": "Queens",
    "routes": [
      "A",
      "H"
    ],
    "lat": 40.580903,
    "lon": -73.835592,
    "neighborhood": "Rockaway Park",
    "zip_code": "11694"
  },
  {
    "station_id": "J12",
    "slug": "121-st",
    "name": "121 St",
    "borough": "Queens",
    "routes": [
      "Z",
      "J"
    ],
    "lat": 40.700492,
    "lon": -73.828294,
    "neighborhood": "Richmond Hill",
    "zip_code": "11418"
  },
  {
    "station_id": "H19",
    "slug": "broad-channel",
    "name": "Broad Channel",
    "borough": "Queens",
    "routes": [],
    "lat": 40.609014,
    "lon": -73.816024,
    "neighborhood": "Broad Channel",
    "zip_code": "11693"
  },
  {
    "station_id": "J13",
    "slug": "111-st",
    "name": "111 St",
    "borough": "Queens",
    "routes": [
      "Z",
      "J"
    ],
    "lat": 40.697418,
    "lon": -73.836345,
    "neighborhood": "Richmond Hill",
    "zip_code": "11418"
  },
  {
    "station_id": "J14",
    "slug": "104-st",
    "name": "104 St",
    "borough": "Queens",
    "routes": [
      "Z",
      "J"
    ],
    "lat": 40.695178,
    "lon": -73.84433,
    "neighborhood": "Richmond Hill",
    "zip_code": "11418"
  },
  {
    "station_id": "J15",
    "slug": "woodhaven-blvd",
    "name": "Woodhaven Blvd",
    "borough": "Queens",
    "routes": [
      "Z",
      "J"
    ],
    "lat": 40.693879,
    "lon": -73.851576,
    "neighborhood": "Woodhaven",
    "zip_code": "11421"
  },
  {
    "station_id": "J16",
    "slug": "85-st-forest-pkwy",
    "name": "85 St-Forest Pkwy",
    "borough": "Queens",
    "routes": [
      "Z",
      "J"
    ],
    "lat": 40.692435,
    "lon": -73.86001,
    "neighborhood": "Woodhaven",
    "zip_code": "11421"
  },
  {
    "station_id": "J17",
    "slug": "75-st-elderts-ln",
    "name": "75 St-Elderts Ln",
    "borough": "Queens",
    "routes": [
      "Z",
      "J"
    ],
    "lat": 40.691324,
    "lon": -73.867139,
    "neighborhood": "Woodhaven",
    "zip_code": "11421"
  },
  {
    "station_id": "J19",
    "slug": "cypress-hills",
    "name": "Cypress Hills",
    "borough": "Brooklyn",
    "routes": [
      "Z",
      "J"
    ],
    "lat": 40.689941,
    "lon": -73.87255,
    "neighborhood": "Cypress Hills",
    "zip_code": "11208"
  },
  {
    "station_id": "J20",
    "slug": "crescent-st",
    "name": "Crescent St",
    "borough": "Brooklyn",
    "routes": [
      "Z",
      "J"
    ],
    "lat": 40.683194,
    "lon": -73.873785,
    "neighborhood": "Cypress Hills",
    "zip_code": "11208"
  },
  {
    "station_id": "J21",
    "slug": "norwood-av",
    "name": "Norwood Av",
    "borough": "Brooklyn",
    "routes": [
      "Z",
      "J"
    ],
    "lat": 40.68141,
    "lon": -73.880039,
    "neighborhood": "Cypress Hills",
    "zip_code": "11208"
  },
  {
    "station_id": "J22",
    "slug": "cleveland-st",
    "name": "Cleveland St",
    "borough": "Brooklyn",
    "routes": [
      "J"
    ],
    "lat": 40.679947,
    "lon": -73.884639,
    "neighborhood": "Cypress Hills",
    "zip_code": "11208"
  },
  {
    "station_id": "J24",
    "slug": "alabama-av",
    "name": "Alabama Av",
    "borough": "Brooklyn",
    "routes": [
      "Z",
      "J"
    ],
    "lat": 40.676992,
    "lon": -73.898654,
    "neighborhood": "East New York",
    "zip_code": "11207"
  },
  {
    "station_id": "J23",
    "slug": "van-siclen-av",
    "name": "Van Siclen Av",
    "borough": "Brooklyn",
    "routes": [
      "Z",
      "J"
    ],
    "lat": 40.678024,
    "lon": -73.891688,
    "neighborhood": "Cypress Hills",
    "zip_code": "11207"
  },